[
  {
    "location": {
      "lat": 40.63950339955169,
      "lng": 72.50666791297573
    },
    "_id": "69ca59606fd91ae9acd2601d",
    "name": "ifor 7-kocha",
    "address": "Xoʻjaobod, Andijon, Oʻzbekiston",
    "type": "area",
    "radius": 0,
    "points": [
      {
        "lat": 40.6392006747875,
        "lng": 72.50910354402131,
        "_id": "69ca59606fd91ae9acd2601e"
      },
      {
        "lat": 40.639527299058955,
        "lng": 72.5092400233496,
        "_id": "69ca59606fd91ae9acd2601f"
      },
      {
        "lat": 40.639742392334966,
        "lng": 72.50417978988091,
        "_id": "69ca59606fd91ae9acd26020"
      },
      {
        "lat": 40.639543232025346,
        "lng": 72.50414829465106,
        "_id": "69ca59606fd91ae9acd26021"
      }
    ],
    "createdAt": "2026-03-30T11:07:12.756Z",
    "__v": 0
  },
  {
    "location": {
      "lat": 40.64007624672408,
      "lng": 72.50752132369801
    },
    "_id": "69ca58d96fd91ae9acd25d77",
    "name": "ifor 8-kocha",
    "address": "Xoʻjaobod, Andijon, Oʻzbekiston",
    "type": "area",
    "radius": 0,
    "points": [
      {
        "lat": 40.63995009723547,
        "lng": 72.50602511677579,
        "_id": "69ca58d96fd91ae9acd25d78"
      },
      {
        "lat": 40.63992568114969,
        "lng": 72.50889955014571,
        "_id": "69ca58d96fd91ae9acd25d79"
      },
      {
        "lat": 40.640186118939965,
        "lng": 72.50903898161513,
        "_id": "69ca58d96fd91ae9acd25d7a"
      },
      {
        "lat": 40.640243089571186,
        "lng": 72.50612164625542,
        "_id": "69ca58d96fd91ae9acd25d7b"
      }
    ],
    "createdAt": "2026-03-30T11:04:57.774Z",
    "__v": 0
  },
  {
    "location": {
      "lat": 40.636686410361236,
      "lng": 72.51478784481137
    },
    "_id": "69ca58816fd91ae9acd25cd2",
    "name": "koxinur 7-tort kocha",
    "address": "Булоқбоши, Andijon, Oʻzbekiston",
    "type": "area",
    "radius": 0,
    "points": [
      {
        "lat": 40.63640968073065,
        "lng": 72.51137713737171,
        "_id": "69ca58816fd91ae9acd25cd3"
      },
      {
        "lat": 40.63662943720536,
        "lng": 72.51824145424138,
        "_id": "69ca58816fd91ae9acd25cd4"
      },
      {
        "lat": 40.63694686129966,
        "lng": 72.51839161120856,
        "_id": "69ca58816fd91ae9acd25cd5"
      },
      {
        "lat": 40.63675966220927,
        "lng": 72.51114117642385,
        "_id": "69ca58816fd91ae9acd25cd6"
      }
    ],
    "createdAt": "2026-03-30T11:03:29.198Z",
    "__v": 0
  },
  {
    "location": {
      "lat": 40.63601881165123,
      "lng": 72.51455724539105
    },
    "_id": "69ca58576fd91ae9acd25c31",
    "name": "koxinur 6-kocha",
    "address": "Булоқбоши, Andijon, Oʻzbekiston",
    "type": "area",
    "radius": 0,
    "points": [
      {
        "lat": 40.63581940077839,
        "lng": 72.51118408646721,
        "_id": "69ca58576fd91ae9acd25c32"
      },
      {
        "lat": 40.63597404732033,
        "lng": 72.51787677688722,
        "_id": "69ca58576fd91ae9acd25c33"
      },
      {
        "lat": 40.636234500527166,
        "lng": 72.51797330636569,
        "_id": "69ca58576fd91ae9acd25c34"
      },
      {
        "lat": 40.63604729797905,
        "lng": 72.51119481184406,
        "_id": "69ca58576fd91ae9acd25c35"
      }
    ],
    "createdAt": "2026-03-30T11:02:47.165Z",
    "__v": 0
  },
  {
    "location": {
      "lat": 40.6056268665017,
      "lng": 72.51363506988588
    },
    "_id": "69c77acd0050b19ffbef22e8",
    "name": "nayman mardu maydon 1-kocha",
    "address": "Nayman, Булоқбоши, Andijon, Oʻzbekiston",
    "type": "area",
    "radius": 0,
    "points": [
      {
        "lat": 40.60482798070581,
        "lng": 72.5136171334056,
        "_id": "69c77acd0050b19ffbef22e9"
      },
      {
        "lat": 40.60485521556325,
        "lng": 72.51390411489734,
        "_id": "69c77acd0050b19ffbef22ea"
      },
      {
        "lat": 40.60638943951949,
        "lng": 72.51371279365856,
        "_id": "69c77acd0050b19ffbef22eb"
      },
      {
        "lat": 40.60643483021826,
        "lng": 72.51330623758204,
        "_id": "69c77acd0050b19ffbef22ec"
      }
    ],
    "createdAt": "2026-03-28T06:53:01.895Z",
    "__v": 0
  },
  {
    "location": {
      "lat": 40.60566090773793,
      "lng": 72.51222109158203
    },
    "_id": "69c77ab70050b19ffbef224f",
    "name": "nayman mardu maydon 2-kocha",
    "address": "Булоқбоши, Andijon, Oʻzbekiston",
    "type": "area",
    "radius": 0,
    "points": [
      {
        "lat": 40.604646413359916,
        "lng": 72.51220614466769,
        "_id": "69c77ab70050b19ffbef2250"
      },
      {
        "lat": 40.60476443219085,
        "lng": 72.51246921036412,
        "_id": "69c77ab70050b19ffbef2251"
      },
      {
        "lat": 40.60664362703656,
        "lng": 72.51232571998403,
        "_id": "69c77ab70050b19ffbef2252"
      },
      {
        "lat": 40.606589158364386,
        "lng": 72.51188329131227,
        "_id": "69c77ab70050b19ffbef2253"
      }
    ],
    "createdAt": "2026-03-28T06:52:39.102Z",
    "__v": 0
  },
  {
    "location": {
      "lat": 40.60580388756183,
      "lng": 72.51103729594547
    },
    "_id": "69c77aa60050b19ffbef21ba",
    "name": "nayman mardu maydon 3-kocha",
    "address": "Булоқбоши, Andijon, Oʻzbekiston",
    "type": "area",
    "radius": 0,
    "points": [
      {
        "lat": 40.60469180524251,
        "lng": 72.51084298605537,
        "_id": "69c77aa60050b19ffbef21bb"
      },
      {
        "lat": 40.60470088361541,
        "lng": 72.51134520238617,
        "_id": "69c77aa60050b19ffbef21bc"
      },
      {
        "lat": 40.60689781358687,
        "lng": 72.51111800928498,
        "_id": "69c77aa60050b19ffbef21bd"
      },
      {
        "lat": 40.60692504780252,
        "lng": 72.51084298605537,
        "_id": "69c77aa60050b19ffbef21be"
      }
    ],
    "createdAt": "2026-03-28T06:52:22.019Z",
    "__v": 0
  },
  {
    "location": {
      "lat": 40.6061760923017,
      "lng": 72.50991627735078
    },
    "_id": "69c77a930050b19ffbef2129",
    "name": "nayman mardu maydon 4-kocha",
    "address": "Булоқбоши, Andijon, Oʻzbekiston",
    "type": "area",
    "radius": 0,
    "points": [
      {
        "lat": 40.604991390895236,
        "lng": 72.50988638352095,
        "_id": "69c77a930050b19ffbef212a"
      },
      {
        "lat": 40.604991390895236,
        "lng": 72.51008966155993,
        "_id": "69c77a930050b19ffbef212b"
      },
      {
        "lat": 40.60728816962063,
        "lng": 72.50999400130704,
        "_id": "69c77a930050b19ffbef212c"
      },
      {
        "lat": 40.607433417795704,
        "lng": 72.50969506301522,
        "_id": "69c77a930050b19ffbef212d"
      }
    ],
    "createdAt": "2026-03-28T06:52:03.171Z",
    "__v": 0
  },
  {
    "location": {
      "lat": 40.60635084677228,
      "lng": 72.50887298271164
    },
    "_id": "69c77a7a0050b19ffbef209c",
    "name": "nayman mardu maydon 5-kocha",
    "address": "Булоқбоши, Andijon, Oʻzbekiston",
    "type": "area",
    "radius": 0,
    "points": [
      {
        "lat": 40.60515480068568,
        "lng": 72.50847539478292,
        "_id": "69c77a7a0050b19ffbef209d"
      },
      {
        "lat": 40.6051638789952,
        "lng": 72.5094559123809,
        "_id": "69c77a7a0050b19ffbef209e"
      },
      {
        "lat": 40.60749696377292,
        "lng": 72.50913305902557,
        "_id": "69c77a7a0050b19ffbef209f"
      },
      {
        "lat": 40.60758774363532,
        "lng": 72.50842756465718,
        "_id": "69c77a7a0050b19ffbef20a0"
      }
    ],
    "createdAt": "2026-03-28T06:51:38.750Z",
    "__v": 0
  },
  {
    "location": {
      "lat": 40.61601666914422,
      "lng": 72.49378770834878
    },
    "_id": "69c778f00050b19ffbef2013",
    "name": "ildan 5",
    "address": "Булоқбоши, Andijon, Oʻzbekiston",
    "type": "area",
    "radius": 0,
    "points": [
      {
        "lat": 40.61583269094987,
        "lng": 72.49129367594006,
        "_id": "69c778f00050b19ffbef2014"
      },
      {
        "lat": 40.61597512584393,
        "lng": 72.49620355791268,
        "_id": "69c778f00050b19ffbef2015"
      },
      {
        "lat": 40.616212516631066,
        "lng": 72.49637034798164,
        "_id": "69c778f00050b19ffbef2016"
      },
      {
        "lat": 40.61604634315202,
        "lng": 72.4912832515607,
        "_id": "69c778f00050b19ffbef2017"
      }
    ],
    "createdAt": "2026-03-28T06:45:04.699Z",
    "__v": 0
  },
  {
    "location": {
      "lat": 40.61670510818201,
      "lng": 72.49387108038627
    },
    "_id": "69c778e00050b19ffbef1f8e",
    "name": "ildan 4",
    "address": "Булоқбоши, Andijon, Oʻzbekiston",
    "type": "area",
    "radius": 0,
    "points": [
      {
        "lat": 40.61653695727395,
        "lng": 72.49088712971988,
        "_id": "69c778e00050b19ffbef1f8f"
      },
      {
        "lat": 40.61651321969339,
        "lng": 72.4969853357938,
        "_id": "69c778e00050b19ffbef1f90"
      },
      {
        "lat": 40.61690886735025,
        "lng": 72.49689151637932,
        "_id": "69c778e00050b19ffbef1f91"
      },
      {
        "lat": 40.616861388410456,
        "lng": 72.49072033965209,
        "_id": "69c778e00050b19ffbef1f92"
      }
    ],
    "createdAt": "2026-03-28T06:44:48.208Z",
    "__v": 0
  },
  {
    "location": {
      "lat": 40.61737399277474,
      "lng": 72.49307370328889
    },
    "_id": "69c778bf0050b19ffbef1f0d",
    "name": "ildan 3",
    "address": "Булоқбоши, Andijon, Oʻzbekiston",
    "type": "area",
    "radius": 0,
    "points": [
      {
        "lat": 40.61711460657372,
        "lng": 72.48885438499511,
        "_id": "69c778bf0050b19ffbef1f0e"
      },
      {
        "lat": 40.61723328917924,
        "lng": 72.49721468654849,
        "_id": "69c778bf0050b19ffbef1f0f"
      },
      {
        "lat": 40.61766058394218,
        "lng": 72.49735020347933,
        "_id": "69c778bf0050b19ffbef1f10"
      },
      {
        "lat": 40.61748749140381,
        "lng": 72.48887553813262,
        "_id": "69c778bf0050b19ffbef1f11"
      }
    ],
    "createdAt": "2026-03-28T06:44:15.962Z",
    "__v": 0
  },
  {
    "location": {
      "lat": 40.61800651082863,
      "lng": 72.49316300675608
    },
    "_id": "69c778950050b19ffbef1e90",
    "name": "ildan 2",
    "address": "Булоқбоши, Andijon, Oʻzbekiston",
    "type": "area",
    "radius": 0,
    "points": [
      {
        "lat": 40.6178375778145,
        "lng": 72.48880042210305,
        "_id": "69c778950050b19ffbef1e91"
      },
      {
        "lat": 40.61783757708022,
        "lng": 72.4975631306512,
        "_id": "69c778950050b19ffbef1e92"
      },
      {
        "lat": 40.618244645301274,
        "lng": 72.49749877766476,
        "_id": "69c778950050b19ffbef1e93"
      },
      {
        "lat": 40.61810624311852,
        "lng": 72.4887896966053,
        "_id": "69c778950050b19ffbef1e94"
      }
    ],
    "createdAt": "2026-03-28T06:43:33.686Z",
    "__v": 0
  },
  {
    "location": {
      "lat": 40.62027586109813,
      "lng": 72.49077123460332
    },
    "_id": "69c778610050b19ffbef1e17",
    "name": "qushxona (novoq yo'li)",
    "address": "Булоқбоши, Andijon, Oʻzbekiston",
    "type": "area",
    "radius": 0,
    "points": [
      {
        "lat": 40.61900178115229,
        "lng": 72.48892913038293,
        "_id": "69c778610050b19ffbef1e18"
      },
      {
        "lat": 40.61892036862952,
        "lng": 72.49054868052704,
        "_id": "69c778610050b19ffbef1e19"
      },
      {
        "lat": 40.62137898307779,
        "lng": 72.49251144659641,
        "_id": "69c778610050b19ffbef1e1a"
      },
      {
        "lat": 40.62180231153292,
        "lng": 72.49109568090688,
        "_id": "69c778610050b19ffbef1e1b"
      }
    ],
    "createdAt": "2026-03-28T06:42:41.120Z",
    "__v": 0
  },
  {
    "location": {
      "lat": 40.61955130934305,
      "lng": 72.49387089595994
    },
    "_id": "69c778290050b19ffbef1da2",
    "name": "ildan 1-kocha",
    "address": "Булоқбоши, Andijon, Oʻzbekiston",
    "type": "area",
    "radius": 0,
    "points": [
      {
        "lat": 40.61901806267676,
        "lng": 72.49326222396809,
        "_id": "69c778290050b19ffbef1da3"
      },
      {
        "lat": 40.618887802623846,
        "lng": 72.49364834188427,
        "_id": "69c778290050b19ffbef1da4"
      },
      {
        "lat": 40.62000314610191,
        "lng": 72.49447420520298,
        "_id": "69c778290050b19ffbef1da5"
      },
      {
        "lat": 40.620296225969696,
        "lng": 72.49409881278444,
        "_id": "69c778290050b19ffbef1da6"
      }
    ],
    "createdAt": "2026-03-28T06:41:45.879Z",
    "__v": 0
  },
  {
    "location": {
      "lat": 40.61949432160487,
      "lng": 72.49704296090835
    },
    "_id": "69c777e10050b19ffbef1d31",
    "name": "uzunchoq tepa  qabristoni",
    "address": "Булоқбоши, Andijon, Oʻzbekiston",
    "type": "area",
    "radius": 0,
    "points": [
      {
        "lat": 40.61902620331665,
        "lng": 72.49674800972261,
        "_id": "69c777e10050b19ffbef1d32"
      },
      {
        "lat": 40.619034344560134,
        "lng": 72.49691961768525,
        "_id": "69c777e10050b19ffbef1d33"
      },
      {
        "lat": 40.6199054519214,
        "lng": 72.49741299057763,
        "_id": "69c777e10050b19ffbef1d34"
      },
      {
        "lat": 40.62001128662129,
        "lng": 72.49709122564786,
        "_id": "69c777e10050b19ffbef1d35"
      }
    ],
    "createdAt": "2026-03-28T06:40:33.825Z",
    "__v": 0
  },
  {
    "location": {
      "lat": 40.7230312,
      "lng": 72.4380719
    },
    "_id": "69c76e40b777c6b7a09c3e47",
    "name": "Police",
    "address": "Andijon, Oʻzbekiston",
    "type": "point",
    "radius": 15,
    "points": [],
    "createdAt": "2026-03-28T05:59:28.052Z",
    "__v": 0
  },
  {
    "location": {
      "lat": 40.7831319,
      "lng": 72.281679
    },
    "_id": "69c76e40b777c6b7a09c3e46",
    "name": "Тош-Анд стоянка",
    "address": "Тош-Анд стоянка, Andijon, Oʻzbekiston",
    "type": "point",
    "radius": 20,
    "points": [],
    "createdAt": "2026-03-28T05:59:28.052Z",
    "__v": 0
  },
  {
    "location": {
      "lat": 40.7829603,
      "lng": 72.2808918
    },
    "_id": "69c76e40b777c6b7a09c3e45",
    "name": "Мажмуа рынок",
    "address": "Мажмуа рынок, Andijon, Oʻzbekiston",
    "type": "point",
    "radius": 15,
    "points": [],
    "createdAt": "2026-03-28T05:59:28.052Z",
    "__v": 0
  },
  {
    "location": {
      "lat": 40.7597243,
      "lng": 72.3351636
    },
    "_id": "69c76e40b777c6b7a09c3e44",
    "name": "Car Wash",
    "address": "Andijon, Oʻzbekiston",
    "type": "point",
    "radius": 30,
    "points": [],
    "createdAt": "2026-03-28T05:59:28.052Z",
    "__v": 0
  },
  {
    "location": {
      "lat": 40.5226655,
      "lng": 72.8024992
    },
    "_id": "69c76e40b777c6b7a09c3e43",
    "name": "Toilets",
    "address": "Andijon, Oʻzbekiston",
    "type": "point",
    "radius": 30,
    "points": [],
    "createdAt": "2026-03-28T05:59:28.052Z",
    "__v": 0
  },
  {
    "location": {
      "lat": 40.5228023,
      "lng": 72.8027924
    },
    "_id": "69c76e40b777c6b7a09c3e42",
    "name": "Toilets",
    "address": "Andijon, Oʻzbekiston",
    "type": "point",
    "radius": 25,
    "points": [],
    "createdAt": "2026-03-28T05:59:28.052Z",
    "__v": 0
  },
  {
    "location": {
      "lat": 40.7240206,
      "lng": 72.3662266
    },
    "_id": "69c76e40b777c6b7a09c3e41",
    "name": "Такси",
    "address": "Такси, Andijon, Oʻzbekiston",
    "type": "point",
    "radius": 20,
    "points": [],
    "createdAt": "2026-03-28T05:59:28.052Z",
    "__v": 0
  },
  {
    "location": {
      "lat": 40.7458615,
      "lng": 72.3585813
    },
    "_id": "69c76e40b777c6b7a09c3e40",
    "name": "Орзу магазин женской одежды",
    "address": "Андижон, Andijon, Oʻzbekiston",
    "type": "point",
    "radius": 20,
    "points": [],
    "createdAt": "2026-03-28T05:59:28.052Z",
    "__v": 0
  },
  {
    "location": {
      "lat": 40.8145015,
      "lng": 72.3313395
    },
    "_id": "69c76e40b777c6b7a09c3e3f",
    "name": "Mars",
    "address": "Mars, Andijon, Oʻzbekiston",
    "type": "point",
    "radius": 25,
    "points": [],
    "createdAt": "2026-03-28T05:59:28.052Z",
    "__v": 0
  },
  {
    "location": {
      "lat": 40.5187268,
      "lng": 72.813576
    },
    "_id": "69c76e40b777c6b7a09c3e3e",
    "name": "Увам",
    "address": "Увам, Andijon, Oʻzbekiston",
    "type": "point",
    "radius": 25,
    "points": [],
    "createdAt": "2026-03-28T05:59:28.052Z",
    "__v": 0
  },
  {
    "location": {
      "lat": 40.762362,
      "lng": 72.3502034
    },
    "_id": "69c76e40b777c6b7a09c3e3a",
    "name": "Жд Касса",
    "address": "Жд Касса, Andijon, Oʻzbekiston",
    "type": "point",
    "radius": 15,
    "points": [],
    "createdAt": "2026-03-28T05:59:28.051Z",
    "__v": 0
  },
  {
    "location": {
      "lat": 40.7533852,
      "lng": 72.3586143
    },
    "_id": "69c76e40b777c6b7a09c3e38",
    "name": "Мавоуннахр",
    "address": "Мавоуннахр, Andijon, Oʻzbekiston",
    "type": "point",
    "radius": 25,
    "points": [],
    "createdAt": "2026-03-28T05:59:28.051Z",
    "__v": 0
  },
  {
    "location": {
      "lat": 40.8055832,
      "lng": 72.3377682
    },
    "_id": "69c76e40b777c6b7a09c3e39",
    "name": "Дийдор радиостудия",
    "address": "Дийдор радиостудия, Andijon, Oʻzbekiston",
    "type": "point",
    "radius": 15,
    "points": [],
    "createdAt": "2026-03-28T05:59:28.051Z",
    "__v": 0
  },
  {
    "location": {
      "lat": 40.7722461,
      "lng": 72.3712478
    },
    "_id": "69c76e40b777c6b7a09c3e3b",
    "name": "Бустон савдо дукони",
    "address": "Usmon Yusupov ko'chasi, Andijon, Oʻzbekiston",
    "type": "point",
    "radius": 15,
    "points": [],
    "createdAt": "2026-03-28T05:59:28.051Z",
    "__v": 0
  },
  {
    "location": {
      "lat": 40.7693492,
      "lng": 72.3797837
    },
    "_id": "69c76e40b777c6b7a09c3e3c",
    "name": "Бобур салон",
    "address": "Usmon Yusupov ko'chasi, Andijon, Oʻzbekiston",
    "type": "point",
    "radius": 15,
    "points": [],
    "createdAt": "2026-03-28T05:59:28.051Z",
    "__v": 0
  },
  {
    "location": {
      "lat": 40.8514011,
      "lng": 72.3225125
    },
    "_id": "69c76e40b777c6b7a09c3e3d",
    "name": "Супермаркет «Самара»",
    "address": "КУЙГАН-ЁР, Andijon, Oʻzbekiston",
    "type": "point",
    "radius": 15,
    "points": [],
    "createdAt": "2026-03-28T05:59:28.051Z",
    "__v": 0
  },
  {
    "location": {
      "lat": 40.7476643,
      "lng": 72.3450996
    },
    "_id": "69c76e40b777c6b7a09c3e2c",
    "name": "ДентАс",
    "address": "2 микрорайон, 16, Andijon, Oʻzbekiston",
    "type": "point",
    "radius": 20,
    "points": [],
    "createdAt": "2026-03-28T05:59:28.050Z",
    "__v": 0
  },
  {
    "location": {
      "lat": 40.7643769,
      "lng": 72.3528527
    },
    "_id": "69c76e40b777c6b7a09c3e27",
    "name": "Gumbaz parxez taomlari 2",
    "address": "Amir Temur shoh ko'chasi, Andijon, Oʻzbekiston",
    "type": "point",
    "radius": 25,
    "points": [],
    "createdAt": "2026-03-28T05:59:28.050Z",
    "__v": 0
  },
  {
    "location": {
      "lat": 40.7641027,
      "lng": 72.3526221
    },
    "_id": "69c76e40b777c6b7a09c3e28",
    "name": "Samo textil",
    "address": "Amir Temur shoh ko'chasi, Andijon, Oʻzbekiston",
    "type": "point",
    "radius": 15,
    "points": [],
    "createdAt": "2026-03-28T05:59:28.050Z",
    "__v": 0
  },
  {
    "location": {
      "lat": 40.7648553,
      "lng": 72.3556181
    },
    "_id": "69c76e40b777c6b7a09c3e29",
    "name": "Smilefood",
    "address": "Amir Umarxon ko'chasi, Andijon, Oʻzbekiston",
    "type": "point",
    "radius": 20,
    "points": [],
    "createdAt": "2026-03-28T05:59:28.050Z",
    "__v": 0
  },
  {
    "location": {
      "lat": 40.7635583,
      "lng": 72.3551191
    },
    "_id": "69c76e40b777c6b7a09c3e2a",
    "name": "Coffee & Sushi",
    "address": "Coffee & Sushi, Andijon, Oʻzbekiston",
    "type": "point",
    "radius": 25,
    "points": [],
    "createdAt": "2026-03-28T05:59:28.050Z",
    "__v": 0
  },
  {
    "location": {
      "lat": 40.5004832,
      "lng": 72.3365777
    },
    "_id": "69c76e40b777c6b7a09c3e2b",
    "name": "Агробанк Мархамат",
    "address": "Muxiddinov ko‘chasi, 109, Andijon, Oʻzbekiston",
    "type": "point",
    "radius": 15,
    "points": [],
    "createdAt": "2026-03-28T05:59:28.050Z",
    "__v": 0
  },
  {
    "location": {
      "lat": 40.7706607,
      "lng": 72.3801214
    },
    "_id": "69c76e40b777c6b7a09c3e2d",
    "name": "Bo'ston daxasi",
    "address": "Bo'ston daxasi, Andijon, Oʻzbekiston",
    "type": "point",
    "radius": 30,
    "points": [],
    "createdAt": "2026-03-28T05:59:28.050Z",
    "__v": 0
  },
  {
    "location": {
      "lat": 40.5069529,
      "lng": 72.8137754
    },
    "_id": "69c76e40b777c6b7a09c3e2e",
    "name": "Кут ордо",
    "address": "Кут ордо, Andijon, Oʻzbekiston",
    "type": "point",
    "radius": 25,
    "points": [],
    "createdAt": "2026-03-28T05:59:28.050Z",
    "__v": 0
  },
  {
    "location": {
      "lat": 40.5108504,
      "lng": 72.8111902
    },
    "_id": "69c76e40b777c6b7a09c3e2f",
    "name": "Маракеш",
    "address": "Маракеш, Andijon, Oʻzbekiston",
    "type": "point",
    "radius": 20,
    "points": [],
    "createdAt": "2026-03-28T05:59:28.050Z",
    "__v": 0
  },
  {
    "location": {
      "lat": 40.513545,
      "lng": 72.814201
    },
    "_id": "69c76e40b777c6b7a09c3e31",
    "name": "Place Of Worship",
    "address": "Andijon, Oʻzbekiston",
    "type": "point",
    "radius": 25,
    "points": [],
    "createdAt": "2026-03-28T05:59:28.050Z",
    "__v": 0
  },
  {
    "location": {
      "lat": 40.543154,
      "lng": 72.792431
    },
    "_id": "69c76e40b777c6b7a09c3e32",
    "name": "Sports",
    "address": "Andijon, Oʻzbekiston",
    "type": "point",
    "radius": 30,
    "points": [],
    "createdAt": "2026-03-28T05:59:28.050Z",
    "__v": 0
  },
  {
    "location": {
      "lat": 40.7843541,
      "lng": 72.3484485
    },
    "_id": "69c76e40b777c6b7a09c3e33",
    "name": "Tabaka",
    "address": "Tabaka, Andijon, Oʻzbekiston",
    "type": "point",
    "radius": 25,
    "points": [],
    "createdAt": "2026-03-28T05:59:28.050Z",
    "__v": 0
  },
  {
    "location": {
      "lat": 40.7940448,
      "lng": 72.3229565
    },
    "_id": "69c76e40b777c6b7a09c3e34",
    "name": "Global Medical System Clinic",
    "address": "Global Medical System Clinic, Andijon, Oʻzbekiston",
    "type": "point",
    "radius": 25,
    "points": [],
    "createdAt": "2026-03-28T05:59:28.050Z",
    "__v": 0
  },
  {
    "location": {
      "lat": 40.7821424,
      "lng": 72.3472519
    },
    "_id": "69c76e40b777c6b7a09c3e35",
    "name": "Epica",
    "address": "Epica, Andijon, Oʻzbekiston",
    "type": "point",
    "radius": 15,
    "points": [],
    "createdAt": "2026-03-28T05:59:28.050Z",
    "__v": 0
  },
  {
    "location": {
      "lat": 40.766175,
      "lng": 72.3671901
    },
    "_id": "69c76e40b777c6b7a09c3e36",
    "name": "Ремонт глушителя",
    "address": "Ремонт глушителя, Andijon, Oʻzbekiston",
    "type": "point",
    "radius": 30,
    "points": [],
    "createdAt": "2026-03-28T05:59:28.050Z",
    "__v": 0
  },
  {
    "location": {
      "lat": 40.7768945,
      "lng": 72.3301381
    },
    "_id": "69c76e40b777c6b7a09c3e37",
    "name": "Мукаммал",
    "address": "Мукаммал, Andijon, Oʻzbekiston",
    "type": "point",
    "radius": 30,
    "points": [],
    "createdAt": "2026-03-28T05:59:28.050Z",
    "__v": 0
  },
  {
    "location": {
      "lat": 40.525683,
      "lng": 72.7965587
    },
    "_id": "69c76e40b777c6b7a09c3e30",
    "name": "SAIMALUU TASH Art Gallery",
    "address": "Курманжан Датка, 244, Ош, Andijon, Oʻzbekiston",
    "type": "point",
    "radius": 25,
    "points": [],
    "createdAt": "2026-03-28T05:59:28.050Z",
    "__v": 0
  },
  {
    "location": {
      "lat": 40.8006632,
      "lng": 72.1603432
    },
    "_id": "69c76e40b777c6b7a09c3e26",
    "name": "Car",
    "address": "Andijon, Oʻzbekiston",
    "type": "point",
    "radius": 25,
    "points": [],
    "createdAt": "2026-03-28T05:59:28.049Z",
    "__v": 0
  },
  {
    "location": {
      "lat": 40.5188428,
      "lng": 72.7634936
    },
    "_id": "69c76e3fb777c6b7a09c3e1f",
    "name": "Ак-Ниет",
    "address": "Ак-Ниет, Andijon, Oʻzbekiston",
    "type": "point",
    "radius": 25,
    "points": [],
    "createdAt": "2026-03-28T05:59:28.049Z",
    "__v": 0
  },
  {
    "location": {
      "lat": 40.5626334,
      "lng": 72.3423966
    },
    "_id": "69c76e40b777c6b7a09c3e20",
    "name": "Заправка - Бензин",
    "address": "Заправка - Бензин, Andijon, Oʻzbekiston",
    "type": "point",
    "radius": 20,
    "points": [],
    "createdAt": "2026-03-28T05:59:28.049Z",
    "__v": 0
  },
  {
    "location": {
      "lat": 40.5624826,
      "lng": 72.3420774
    },
    "_id": "69c76e40b777c6b7a09c3e21",
    "name": "Qoraqurgan",
    "address": "Qoraqurgan, Andijon, Oʻzbekiston",
    "type": "point",
    "radius": 50,
    "points": [],
    "createdAt": "2026-03-28T05:59:28.049Z",
    "__v": 0
  },
  {
    "location": {
      "lat": 40.5166274,
      "lng": 72.8031141
    },
    "_id": "69c76e40b777c6b7a09c3e22",
    "name": "Kelinki",
    "address": "Kelinki, Andijon, Oʻzbekiston",
    "type": "point",
    "radius": 20,
    "points": [],
    "createdAt": "2026-03-28T05:59:28.049Z",
    "__v": 0
  },
  {
    "location": {
      "lat": 40.7464399,
      "lng": 72.3595025
    },
    "_id": "69c76e40b777c6b7a09c3e23",
    "name": "Galen Med Servis",
    "address": "3-kichik daha, Andijon, Oʻzbekiston",
    "type": "point",
    "radius": 15,
    "points": [],
    "createdAt": "2026-03-28T05:59:28.049Z",
    "__v": 0
  },
  {
    "location": {
      "lat": 40.7458998,
      "lng": 72.359956
    },
    "_id": "69c76e40b777c6b7a09c3e24",
    "name": "Pharmacy",
    "address": "3-kichik daha, Andijon, Oʻzbekiston",
    "type": "point",
    "radius": 25,
    "points": [],
    "createdAt": "2026-03-28T05:59:28.049Z",
    "__v": 0
  },
  {
    "location": {
      "lat": 40.7834599,
      "lng": 72.3389531
    },
    "_id": "69c76e40b777c6b7a09c3e25",
    "name": "Pulpa Dent",
    "address": "O'zbekiston ko'chasi, 63, Andijon, Oʻzbekiston",
    "type": "point",
    "radius": 15,
    "points": [],
    "createdAt": "2026-03-28T05:59:28.049Z",
    "__v": 0
  },
  {
    "location": {
      "lat": 40.5011154,
      "lng": 72.3460878
    },
    "_id": "69c76e3fb777c6b7a09c3e1a",
    "name": "Veterinary",
    "address": "Andijon, Oʻzbekiston",
    "type": "point",
    "radius": 15,
    "points": [],
    "createdAt": "2026-03-28T05:59:27.962Z",
    "__v": 0
  },
  {
    "location": {
      "lat": 40.5046314,
      "lng": 72.3308797
    },
    "_id": "69c76e3fb777c6b7a09c3e19",
    "name": "Ветаптека",
    "address": "Ипак йули улица, Andijon, Oʻzbekiston",
    "type": "point",
    "radius": 25,
    "points": [],
    "createdAt": "2026-03-28T05:59:27.962Z",
    "__v": 0
  },
  {
    "location": {
      "lat": 40.5995696,
      "lng": 72.3281321
    },
    "_id": "69c76e3fb777c6b7a09c3e17",
    "name": "O'qchi",
    "address": "O'qchi, Andijon, Oʻzbekiston",
    "type": "point",
    "radius": 50,
    "points": [],
    "createdAt": "2026-03-28T05:59:27.962Z",
    "__v": 0
  },
  {
    "location": {
      "lat": 40.6061351,
      "lng": 72.3092654
    },
    "_id": "69c76e3fb777c6b7a09c3e18",
    "name": "Place Of Worship",
    "address": "Andijon, Oʻzbekiston",
    "type": "point",
    "radius": 30,
    "points": [],
    "createdAt": "2026-03-28T05:59:27.962Z",
    "__v": 0
  },
  {
    "location": {
      "lat": 40.5042517,
      "lng": 72.3340454
    },
    "_id": "69c76e3fb777c6b7a09c3e1c",
    "name": "Стоянка",
    "address": "Стоянка, Andijon, Oʻzbekiston",
    "type": "point",
    "radius": 30,
    "points": [],
    "createdAt": "2026-03-28T05:59:27.962Z",
    "__v": 0
  },
  {
    "location": {
      "lat": 40.5037194,
      "lng": 72.7751086
    },
    "_id": "69c76e3fb777c6b7a09c3e1d",
    "name": "ECO",
    "address": "ECO, Andijon, Oʻzbekiston",
    "type": "point",
    "radius": 15,
    "points": [],
    "createdAt": "2026-03-28T05:59:27.962Z",
    "__v": 0
  },
  {
    "location": {
      "lat": 40.5024726,
      "lng": 72.3433948
    },
    "_id": "69c76e3fb777c6b7a09c3e1b",
    "name": "СЭС",
    "address": "СЭС, Andijon, Oʻzbekiston",
    "type": "point",
    "radius": 30,
    "points": [],
    "createdAt": "2026-03-28T05:59:27.962Z",
    "__v": 0
  },
  {
    "location": {
      "lat": 40.5043459,
      "lng": 72.7746269
    },
    "_id": "69c76e3fb777c6b7a09c3e1e",
    "name": "Сары-Челек",
    "address": "Сары-Челек, Andijon, Oʻzbekiston",
    "type": "point",
    "radius": 15,
    "points": [],
    "createdAt": "2026-03-28T05:59:27.962Z",
    "__v": 0
  },
  {
    "location": {
      "lat": 40.5470841,
      "lng": 72.7982124
    },
    "_id": "69c76e3fb777c6b7a09c3e13",
    "name": "1000 мелочей",
    "address": "Карасуйская улица, 12, Andijon, Oʻzbekiston",
    "type": "point",
    "radius": 25,
    "points": [],
    "createdAt": "2026-03-28T05:59:27.961Z",
    "__v": 0
  },
  {
    "location": {
      "lat": 40.5486286,
      "lng": 72.7999425
    },
    "_id": "69c76e3fb777c6b7a09c3e11",
    "name": "Mobile Phone",
    "address": "Andijon, Oʻzbekiston",
    "type": "point",
    "radius": 20,
    "points": [],
    "createdAt": "2026-03-28T05:59:27.961Z",
    "__v": 0
  },
  {
    "location": {
      "lat": 40.5480422,
      "lng": 72.799992
    },
    "_id": "69c76e3fb777c6b7a09c3e12",
    "name": "Parking",
    "address": "Andijon, Oʻzbekiston",
    "type": "point",
    "radius": 25,
    "points": [],
    "createdAt": "2026-03-28T05:59:27.961Z",
    "__v": 0
  },
  {
    "location": {
      "lat": 40.5469557,
      "lng": 72.7980595
    },
    "_id": "69c76e3fb777c6b7a09c3e14",
    "name": "Furniture",
    "address": "Andijon, Oʻzbekiston",
    "type": "point",
    "radius": 30,
    "points": [],
    "createdAt": "2026-03-28T05:59:27.961Z",
    "__v": 0
  },
  {
    "location": {
      "lat": 40.5468762,
      "lng": 72.7979496
    },
    "_id": "69c76e3fb777c6b7a09c3e15",
    "name": "Furniture",
    "address": "Andijon, Oʻzbekiston",
    "type": "point",
    "radius": 30,
    "points": [],
    "createdAt": "2026-03-28T05:59:27.961Z",
    "__v": 0
  },
  {
    "location": {
      "lat": 40.5473511,
      "lng": 72.7995294
    },
    "_id": "69c76e3fb777c6b7a09c3e16",
    "name": "Furniture",
    "address": "Andijon, Oʻzbekiston",
    "type": "point",
    "radius": 15,
    "points": [],
    "createdAt": "2026-03-28T05:59:27.961Z",
    "__v": 0
  },
  {
    "location": {
      "lat": 40.5483101,
      "lng": 72.7994328
    },
    "_id": "69c76e3fb777c6b7a09c3e09",
    "name": "Салон красоты",
    "address": "Салон красоты, Andijon, Oʻzbekiston",
    "type": "point",
    "radius": 20,
    "points": [],
    "createdAt": "2026-03-28T05:59:27.960Z",
    "__v": 0
  },
  {
    "location": {
      "lat": 40.5498464,
      "lng": 72.7995692
    },
    "_id": "69c76e3fb777c6b7a09c3e03",
    "name": "Waste Disposal",
    "address": "Andijon, Oʻzbekiston",
    "type": "point",
    "radius": 15,
    "points": [],
    "createdAt": "2026-03-28T05:59:27.960Z",
    "__v": 0
  },
  {
    "location": {
      "lat": 40.5500093,
      "lng": 72.7994943
    },
    "_id": "69c76e3fb777c6b7a09c3e04",
    "name": "Farm",
    "address": "Andijon, Oʻzbekiston",
    "type": "point",
    "radius": 30,
    "points": [],
    "createdAt": "2026-03-28T05:59:27.960Z",
    "__v": 0
  },
  {
    "location": {
      "lat": 40.5492452,
      "lng": 72.799675
    },
    "_id": "69c76e3fb777c6b7a09c3e05",
    "name": "Капитал",
    "address": "Капитал, Andijon, Oʻzbekiston",
    "type": "point",
    "radius": 30,
    "points": [],
    "createdAt": "2026-03-28T05:59:27.960Z",
    "__v": 0
  },
  {
    "location": {
      "lat": 40.5497852,
      "lng": 72.7987806
    },
    "_id": "69c76e3fb777c6b7a09c3e06",
    "name": "Waste Disposal",
    "address": "Andijon, Oʻzbekiston",
    "type": "point",
    "radius": 20,
    "points": [],
    "createdAt": "2026-03-28T05:59:27.960Z",
    "__v": 0
  },
  {
    "location": {
      "lat": 40.5488196,
      "lng": 72.7985799
    },
    "_id": "69c76e3fb777c6b7a09c3e07",
    "name": "Shelter",
    "address": "Andijon, Oʻzbekiston",
    "type": "point",
    "radius": 15,
    "points": [],
    "createdAt": "2026-03-28T05:59:27.960Z",
    "__v": 0
  },
  {
    "location": {
      "lat": 40.5483223,
      "lng": 72.7995348
    },
    "_id": "69c76e3fb777c6b7a09c3e08",
    "name": "Climber",
    "address": "Climber, Andijon, Oʻzbekiston",
    "type": "point",
    "radius": 25,
    "points": [],
    "createdAt": "2026-03-28T05:59:27.960Z",
    "__v": 0
  },
  {
    "location": {
      "lat": 40.5484359,
      "lng": 72.7995991
    },
    "_id": "69c76e3fb777c6b7a09c3e0a",
    "name": "Pharmacy",
    "address": "Andijon, Oʻzbekiston",
    "type": "point",
    "radius": 20,
    "points": [],
    "createdAt": "2026-03-28T05:59:27.960Z",
    "__v": 0
  },
  {
    "location": {
      "lat": 40.5485862,
      "lng": 72.799575
    },
    "_id": "69c76e3fb777c6b7a09c3e0b",
    "name": "Мээрим",
    "address": "Мээрим, Andijon, Oʻzbekiston",
    "type": "point",
    "radius": 20,
    "points": [],
    "createdAt": "2026-03-28T05:59:27.960Z",
    "__v": 0
  },
  {
    "location": {
      "lat": 40.548737,
      "lng": 72.7998727
    },
    "_id": "69c76e3fb777c6b7a09c3e0c",
    "name": "Корзинка.kg",
    "address": "Корзинка.kg, Andijon, Oʻzbekiston",
    "type": "point",
    "radius": 30,
    "points": [],
    "createdAt": "2026-03-28T05:59:27.960Z",
    "__v": 0
  },
  {
    "location": {
      "lat": 40.5486718,
      "lng": 72.7998647
    },
    "_id": "69c76e3fb777c6b7a09c3e0d",
    "name": "Atm",
    "address": "Andijon, Oʻzbekiston",
    "type": "point",
    "radius": 15,
    "points": [],
    "createdAt": "2026-03-28T05:59:27.960Z",
    "__v": 0
  },
  {
    "location": {
      "lat": 40.5487397,
      "lng": 72.8000595
    },
    "_id": "69c76e3fb777c6b7a09c3e0e",
    "name": "Fast Food",
    "address": "Andijon, Oʻzbekiston",
    "type": "point",
    "radius": 25,
    "points": [],
    "createdAt": "2026-03-28T05:59:27.960Z",
    "__v": 0
  },
  {
    "location": {
      "lat": 40.548733,
      "lng": 72.800031
    },
    "_id": "69c76e3fb777c6b7a09c3e0f",
    "name": "Ice Cream",
    "address": "Andijon, Oʻzbekiston",
    "type": "point",
    "radius": 15,
    "points": [],
    "createdAt": "2026-03-28T05:59:27.960Z",
    "__v": 0
  },
  {
    "location": {
      "lat": 40.5487126,
      "lng": 72.8000041
    },
    "_id": "69c76e3fb777c6b7a09c3e10",
    "name": "Bbq",
    "address": "Andijon, Oʻzbekiston",
    "type": "point",
    "radius": 15,
    "points": [],
    "createdAt": "2026-03-28T05:59:27.960Z",
    "__v": 0
  },
  {
    "location": {
      "lat": 40.5499113,
      "lng": 72.7996013
    },
    "_id": "69c76e3fb777c6b7a09c3e02",
    "name": "Hairdresser",
    "address": "Andijon, Oʻzbekiston",
    "type": "point",
    "radius": 30,
    "points": [],
    "createdAt": "2026-03-28T05:59:27.959Z",
    "__v": 0
  },
  {
    "location": {
      "lat": 40.5010986,
      "lng": 72.3522534
    },
    "_id": "69c76e3fb777c6b7a09c3dfb",
    "name": "Мол-бозор",
    "address": "Мол-бозор, Andijon, Oʻzbekiston",
    "type": "point",
    "radius": 25,
    "points": [],
    "createdAt": "2026-03-28T05:59:27.959Z",
    "__v": 0
  },
  {
    "location": {
      "lat": 40.5022296,
      "lng": 72.3438143
    },
    "_id": "69c76e3fb777c6b7a09c3dfc",
    "name": "Ремонт автомобилей",
    "address": "Ремонт автомобилей, Andijon, Oʻzbekiston",
    "type": "point",
    "radius": 20,
    "points": [],
    "createdAt": "2026-03-28T05:59:27.959Z",
    "__v": 0
  },
  {
    "location": {
      "lat": 40.4990519,
      "lng": 72.3369747
    },
    "_id": "69c76e3fb777c6b7a09c3dfd",
    "name": "Автомойка",
    "address": "Автомойка, Andijon, Oʻzbekiston",
    "type": "point",
    "radius": 15,
    "points": [],
    "createdAt": "2026-03-28T05:59:27.959Z",
    "__v": 0
  },
  {
    "location": {
      "lat": 40.5066743,
      "lng": 72.3333012
    },
    "_id": "69c76e3fb777c6b7a09c3dfe",
    "name": "Istiqlol",
    "address": "Mustaqilik ko'chasi, Andijon, Oʻzbekiston",
    "type": "point",
    "radius": 15,
    "points": [],
    "createdAt": "2026-03-28T05:59:27.959Z",
    "__v": 0
  },
  {
    "location": {
      "lat": 40.5075006,
      "lng": 72.3340566
    },
    "_id": "69c76e3fb777c6b7a09c3dff",
    "name": "Car Wash",
    "address": "Andijon, Oʻzbekiston",
    "type": "point",
    "radius": 30,
    "points": [],
    "createdAt": "2026-03-28T05:59:27.959Z",
    "__v": 0
  },
  {
    "location": {
      "lat": 40.5058808,
      "lng": 72.3142405
    },
    "_id": "69c76e3fb777c6b7a09c3e00",
    "name": "Markaziy poliklinika",
    "address": "Markaziy poliklinika, Andijon, Oʻzbekiston",
    "type": "point",
    "radius": 25,
    "points": [],
    "createdAt": "2026-03-28T05:59:27.959Z",
    "__v": 0
  },
  {
    "location": {
      "lat": 40.54961,
      "lng": 72.8000895
    },
    "_id": "69c76e3fb777c6b7a09c3e01",
    "name": "Ош Ойл",
    "address": "Ош Ойл, Andijon, Oʻzbekiston",
    "type": "point",
    "radius": 20,
    "points": [],
    "createdAt": "2026-03-28T05:59:27.959Z",
    "__v": 0
  },
  {
    "location": {
      "lat": 40.5497322,
      "lng": 72.8008996
    },
    "_id": "69c76e3fb777c6b7a09c3df7",
    "name": "Butcher",
    "address": "Andijon, Oʻzbekiston",
    "type": "point",
    "radius": 20,
    "points": [],
    "createdAt": "2026-03-28T05:59:27.958Z",
    "__v": 0
  },
  {
    "location": {
      "lat": 40.549754,
      "lng": 72.800368
    },
    "_id": "69c76e3fb777c6b7a09c3df6",
    "name": "Car Wash",
    "address": "Andijon, Oʻzbekiston",
    "type": "point",
    "radius": 25,
    "points": [],
    "createdAt": "2026-03-28T05:59:27.958Z",
    "__v": 0
  },
  {
    "location": {
      "lat": 40.5524735,
      "lng": 72.8014592
    },
    "_id": "69c76e3fb777c6b7a09c3df5",
    "name": "Alcohol",
    "address": "Andijon, Oʻzbekiston",
    "type": "point",
    "radius": 20,
    "points": [],
    "createdAt": "2026-03-28T05:59:27.958Z",
    "__v": 0
  },
  {
    "location": {
      "lat": 40.5008751,
      "lng": 72.3338155
    },
    "_id": "69c76e3fb777c6b7a09c3dfa",
    "name": "Bank",
    "address": "Andijon, Oʻzbekiston",
    "type": "point",
    "radius": 20,
    "points": [],
    "createdAt": "2026-03-28T05:59:27.958Z",
    "__v": 0
  },
  {
    "location": {
      "lat": 40.5000635,
      "lng": 72.3328829
    },
    "_id": "69c76e3fb777c6b7a09c3df9",
    "name": "Bolalar bog'chasi",
    "address": "Bolalar bog'chasi, Andijon, Oʻzbekiston",
    "type": "point",
    "radius": 15,
    "points": [],
    "createdAt": "2026-03-28T05:59:27.958Z",
    "__v": 0
  },
  {
    "location": {
      "lat": 40.5499157,
      "lng": 72.8008888
    },
    "_id": "69c76e3fb777c6b7a09c3df8",
    "name": "Butcher",
    "address": "Andijon, Oʻzbekiston",
    "type": "point",
    "radius": 30,
    "points": [],
    "createdAt": "2026-03-28T05:59:27.958Z",
    "__v": 0
  },
  {
    "location": {
      "lat": 40.5510264,
      "lng": 72.8015363
    },
    "_id": "69c76e3fb777c6b7a09c3de8",
    "name": "LC Waikiki",
    "address": "Ош, Andijon, Oʻzbekiston",
    "type": "point",
    "radius": 30,
    "points": [],
    "createdAt": "2026-03-28T05:59:27.957Z",
    "__v": 0
  },
  {
    "location": {
      "lat": 40.5503193,
      "lng": 72.8013422
    },
    "_id": "69c76e3fb777c6b7a09c3de9",
    "name": "Cafe",
    "address": "Andijon, Oʻzbekiston",
    "type": "point",
    "radius": 20,
    "points": [],
    "createdAt": "2026-03-28T05:59:27.957Z",
    "__v": 0
  },
  {
    "location": {
      "lat": 40.5499375,
      "lng": 72.8009103
    },
    "_id": "69c76e3fb777c6b7a09c3dea",
    "name": "Bakery",
    "address": "Andijon, Oʻzbekiston",
    "type": "point",
    "radius": 15,
    "points": [],
    "createdAt": "2026-03-28T05:59:27.957Z",
    "__v": 0
  },
  {
    "location": {
      "lat": 40.5498397,
      "lng": 72.8012375
    },
    "_id": "69c76e3fb777c6b7a09c3deb",
    "name": "Parking",
    "address": "Andijon, Oʻzbekiston",
    "type": "point",
    "radius": 15,
    "points": [],
    "createdAt": "2026-03-28T05:59:27.957Z",
    "__v": 0
  },
  {
    "location": {
      "lat": 40.5500272,
      "lng": 72.8009371
    },
    "_id": "69c76e3fb777c6b7a09c3dec",
    "name": "Farm",
    "address": "Andijon, Oʻzbekiston",
    "type": "point",
    "radius": 20,
    "points": [],
    "createdAt": "2026-03-28T05:59:27.957Z",
    "__v": 0
  },
  {
    "location": {
      "lat": 40.5501617,
      "lng": 72.8009908
    },
    "_id": "69c76e3fb777c6b7a09c3ded",
    "name": "Farm",
    "address": "Andijon, Oʻzbekiston",
    "type": "point",
    "radius": 30,
    "points": [],
    "createdAt": "2026-03-28T05:59:27.957Z",
    "__v": 0
  },
  {
    "location": {
      "lat": 40.550182,
      "lng": 72.8010712
    },
    "_id": "69c76e3fb777c6b7a09c3dee",
    "name": "Cafe",
    "address": "Andijon, Oʻzbekiston",
    "type": "point",
    "radius": 25,
    "points": [],
    "createdAt": "2026-03-28T05:59:27.957Z",
    "__v": 0
  },
  {
    "location": {
      "lat": 40.5498845,
      "lng": 72.8008084
    },
    "_id": "69c76e3fb777c6b7a09c3df0",
    "name": "Stationery",
    "address": "Andijon, Oʻzbekiston",
    "type": "point",
    "radius": 20,
    "points": [],
    "createdAt": "2026-03-28T05:59:27.957Z",
    "__v": 0
  },
  {
    "location": {
      "lat": 40.5511521,
      "lng": 72.8015272
    },
    "_id": "69c76e3fb777c6b7a09c3df1",
    "name": "Video Games",
    "address": "Andijon, Oʻzbekiston",
    "type": "point",
    "radius": 15,
    "points": [],
    "createdAt": "2026-03-28T05:59:27.957Z",
    "__v": 0
  },
  {
    "location": {
      "lat": 40.5498356,
      "lng": 72.8007172
    },
    "_id": "69c76e3fb777c6b7a09c3df2",
    "name": "Pharmacy",
    "address": "Andijon, Oʻzbekiston",
    "type": "point",
    "radius": 20,
    "points": [],
    "createdAt": "2026-03-28T05:59:27.957Z",
    "__v": 0
  },
  {
    "location": {
      "lat": 40.549807,
      "lng": 72.8007333
    },
    "_id": "69c76e3fb777c6b7a09c3df3",
    "name": "Cafe",
    "address": "Andijon, Oʻzbekiston",
    "type": "point",
    "radius": 30,
    "points": [],
    "createdAt": "2026-03-28T05:59:27.957Z",
    "__v": 0
  },
  {
    "location": {
      "lat": 40.5500353,
      "lng": 72.8008298
    },
    "_id": "69c76e3fb777c6b7a09c3df4",
    "name": "Beverages",
    "address": "Andijon, Oʻzbekiston",
    "type": "point",
    "radius": 30,
    "points": [],
    "createdAt": "2026-03-28T05:59:27.957Z",
    "__v": 0
  },
  {
    "location": {
      "lat": 40.5501209,
      "lng": 72.8010283
    },
    "_id": "69c76e3fb777c6b7a09c3def",
    "name": "Bakery",
    "address": "Andijon, Oʻzbekiston",
    "type": "point",
    "radius": 20,
    "points": [],
    "createdAt": "2026-03-28T05:59:27.957Z",
    "__v": 0
  },
  {
    "location": {
      "lat": 40.553584,
      "lng": 72.8022794
    },
    "_id": "69c76e3fb777c6b7a09c3de3",
    "name": "Farm",
    "address": "Andijon, Oʻzbekiston",
    "type": "point",
    "radius": 25,
    "points": [],
    "createdAt": "2026-03-28T05:59:27.956Z",
    "__v": 0
  },
  {
    "location": {
      "lat": 40.5526172,
      "lng": 72.802013
    },
    "_id": "69c76e3fb777c6b7a09c3de4",
    "name": "BraND MIXX",
    "address": "BraND MIXX, Andijon, Oʻzbekiston",
    "type": "point",
    "radius": 20,
    "points": [],
    "createdAt": "2026-03-28T05:59:27.956Z",
    "__v": 0
  },
  {
    "location": {
      "lat": 40.5532923,
      "lng": 72.8017554
    },
    "_id": "69c76e3fb777c6b7a09c3de5",
    "name": "Hairdresser",
    "address": "Andijon, Oʻzbekiston",
    "type": "point",
    "radius": 30,
    "points": [],
    "createdAt": "2026-03-28T05:59:27.956Z",
    "__v": 0
  },
  {
    "location": {
      "lat": 40.5519075,
      "lng": 72.8016133
    },
    "_id": "69c76e3fb777c6b7a09c3de6",
    "name": "Demir Bank",
    "address": "Demir Bank, Andijon, Oʻzbekiston",
    "type": "point",
    "radius": 15,
    "points": [],
    "createdAt": "2026-03-28T05:59:27.956Z",
    "__v": 0
  },
  {
    "location": {
      "lat": 40.5514571,
      "lng": 72.8015812
    },
    "_id": "69c76e3fb777c6b7a09c3de7",
    "name": "Kyrgyz Investment and Credit Bank",
    "address": "Kyrgyz Investment and Credit Bank, Andijon, Oʻzbekiston",
    "type": "point",
    "radius": 15,
    "points": [],
    "createdAt": "2026-03-28T05:59:27.956Z",
    "__v": 0
  },
  {
    "location": {
      "lat": 40.5543724,
      "lng": 72.7995422
    },
    "_id": "69c76e3fb777c6b7a09c3de2",
    "name": "Ошская Областная Детская Больница",
    "address": "Ошская Областная Детская Больница, Andijon, Oʻzbekiston",
    "type": "point",
    "radius": 15,
    "points": [],
    "createdAt": "2026-03-28T05:59:27.955Z",
    "__v": 0
  },
  {
    "location": {
      "lat": 40.5015285,
      "lng": 72.7758053
    },
    "_id": "69c76e3fb777c6b7a09c3de1",
    "name": "Ак-Тулпар",
    "address": "Ак-Тулпар, Andijon, Oʻzbekiston",
    "type": "point",
    "radius": 15,
    "points": [],
    "createdAt": "2026-03-28T05:59:27.955Z",
    "__v": 0
  },
  {
    "location": {
      "lat": 40.5234528,
      "lng": 72.8076602
    },
    "_id": "69c76e3fb777c6b7a09c3de0",
    "name": "Freezia",
    "address": "Freezia, Andijon, Oʻzbekiston",
    "type": "point",
    "radius": 20,
    "points": [],
    "createdAt": "2026-03-28T05:59:27.955Z",
    "__v": 0
  },
  {
    "location": {
      "lat": 40.5234752,
      "lng": 72.808397
    },
    "_id": "69c76e3fb777c6b7a09c3ddf",
    "name": "Оптима Банк",
    "address": "Оптима Банк, Andijon, Oʻzbekiston",
    "type": "point",
    "radius": 20,
    "points": [],
    "createdAt": "2026-03-28T05:59:27.955Z",
    "__v": 0
  },
  {
    "location": {
      "lat": 40.5447541,
      "lng": 72.7851279
    },
    "_id": "69c76e3fb777c6b7a09c3dde",
    "name": "Мол-Булак",
    "address": "Мол-Булак, Andijon, Oʻzbekiston",
    "type": "point",
    "radius": 25,
    "points": [],
    "createdAt": "2026-03-28T05:59:27.954Z",
    "__v": 0
  },
  {
    "location": {
      "lat": 40.5309173,
      "lng": 72.7947867
    },
    "_id": "69c76e3fb777c6b7a09c3dd2",
    "name": "Зеркало",
    "address": "Зеркало, Andijon, Oʻzbekiston",
    "type": "point",
    "radius": 30,
    "points": [],
    "createdAt": "2026-03-28T05:59:27.954Z",
    "__v": 0
  },
  {
    "location": {
      "lat": 40.5107556,
      "lng": 72.8200189
    },
    "_id": "69c76e3fb777c6b7a09c3dd3",
    "name": "Дархан плюс",
    "address": "Дархан плюс, Andijon, Oʻzbekiston",
    "type": "point",
    "radius": 15,
    "points": [],
    "createdAt": "2026-03-28T05:59:27.954Z",
    "__v": 0
  },
  {
    "location": {
      "lat": 40.5090429,
      "lng": 72.8125851
    },
    "_id": "69c76e3fb777c6b7a09c3dd4",
    "name": "Исламбек",
    "address": "Исламбек, Andijon, Oʻzbekiston",
    "type": "point",
    "radius": 15,
    "points": [],
    "createdAt": "2026-03-28T05:59:27.954Z",
    "__v": 0
  },
  {
    "location": {
      "lat": 40.5414705,
      "lng": 72.800188
    },
    "_id": "69c76e3fb777c6b7a09c3dd5",
    "name": "Kindergarten",
    "address": "Andijon, Oʻzbekiston",
    "type": "point",
    "radius": 20,
    "points": [],
    "createdAt": "2026-03-28T05:59:27.954Z",
    "__v": 0
  },
  {
    "location": {
      "lat": 40.89593,
      "lng": 71.8525198
    },
    "_id": "69c76e3fb777c6b7a09c3dd6",
    "name": "Courthouse",
    "address": "Andijon, Oʻzbekiston",
    "type": "point",
    "radius": 20,
    "points": [],
    "createdAt": "2026-03-28T05:59:27.954Z",
    "__v": 0
  },
  {
    "location": {
      "lat": 40.5577061,
      "lng": 72.8027261
    },
    "_id": "69c76e3fb777c6b7a09c3dd7",
    "name": "Казына",
    "address": "Исхака Разакова улица, Andijon, Oʻzbekiston",
    "type": "point",
    "radius": 15,
    "points": [],
    "createdAt": "2026-03-28T05:59:27.954Z",
    "__v": 0
  },
  {
    "location": {
      "lat": 40.5584881,
      "lng": 72.8028073
    },
    "_id": "69c76e3fb777c6b7a09c3dd9",
    "name": "Асман",
    "address": "Исхака Разакова улица, Andijon, Oʻzbekiston",
    "type": "point",
    "radius": 25,
    "points": [],
    "createdAt": "2026-03-28T05:59:27.954Z",
    "__v": 0
  },
  {
    "location": {
      "lat": 40.566825,
      "lng": 72.806313
    },
    "_id": "69c76e3fb777c6b7a09c3dda",
    "name": "Петролиум",
    "address": "Раззакова улица, Andijon, Oʻzbekiston",
    "type": "point",
    "radius": 15,
    "points": [],
    "createdAt": "2026-03-28T05:59:27.954Z",
    "__v": 0
  },
  {
    "location": {
      "lat": 40.5929769,
      "lng": 72.8212987
    },
    "_id": "69c76e3fb777c6b7a09c3ddb",
    "name": "Милиция",
    "address": "Наримана улица, Andijon, Oʻzbekiston",
    "type": "point",
    "radius": 30,
    "points": [],
    "createdAt": "2026-03-28T05:59:27.954Z",
    "__v": 0
  },
  {
    "location": {
      "lat": 40.5680806,
      "lng": 72.8071548
    },
    "_id": "69c76e3fb777c6b7a09c3ddc",
    "name": "Партнер Нефть",
    "address": "Раззакова улица, Andijon, Oʻzbekiston",
    "type": "point",
    "radius": 30,
    "points": [],
    "createdAt": "2026-03-28T05:59:27.954Z",
    "__v": 0
  },
  {
    "location": {
      "lat": 40.5450279,
      "lng": 72.7851742
    },
    "_id": "69c76e3fb777c6b7a09c3ddd",
    "name": "Курманжан-Датка",
    "address": "Курманжан-Датка, Andijon, Oʻzbekiston",
    "type": "point",
    "radius": 15,
    "points": [],
    "createdAt": "2026-03-28T05:59:27.954Z",
    "__v": 0
  },
  {
    "location": {
      "lat": 40.6006785,
      "lng": 72.8259478
    },
    "_id": "69c76e3fb777c6b7a09c3dd8",
    "name": "АВТОГАЗ (пропан)",
    "address": "АВТОГАЗ (пропан), Andijon, Oʻzbekiston",
    "type": "point",
    "radius": 25,
    "points": [],
    "createdAt": "2026-03-28T05:59:27.954Z",
    "__v": 0
  },
  {
    "location": {
      "lat": 40.7565199,
      "lng": 72.359654
    },
    "_id": "69c76e3fb777c6b7a09c3dc9",
    "name": "Andijon Taraqqiyot Markazi",
    "address": "A.Xaydarov ko'chasi, 10a, Andijon, Oʻzbekiston",
    "type": "point",
    "radius": 20,
    "points": [],
    "createdAt": "2026-03-28T05:59:27.953Z",
    "__v": 0
  },
  {
    "location": {
      "lat": 40.8049076,
      "lng": 72.333574
    },
    "_id": "69c76e3fb777c6b7a09c3dc1",
    "name": "Marrom",
    "address": "Marrom, Andijon, Oʻzbekiston",
    "type": "point",
    "radius": 25,
    "points": [],
    "createdAt": "2026-03-28T05:59:27.953Z",
    "__v": 0
  },
  {
    "location": {
      "lat": 40.501403,
      "lng": 72.824858
    },
    "_id": "69c76e3fb777c6b7a09c3dc2",
    "name": "чайхана \"Акниет\"",
    "address": "чайхана \"Акниет\", Andijon, Oʻzbekiston",
    "type": "point",
    "radius": 20,
    "points": [],
    "createdAt": "2026-03-28T05:59:27.953Z",
    "__v": 0
  },
  {
    "location": {
      "lat": 40.7633097,
      "lng": 72.3540045
    },
    "_id": "69c76e3fb777c6b7a09c3dc3",
    "name": "Computer",
    "address": "Миллий Тикланиш улица, Andijon, Oʻzbekiston",
    "type": "point",
    "radius": 15,
    "points": [],
    "createdAt": "2026-03-28T05:59:27.953Z",
    "__v": 0
  },
  {
    "location": {
      "lat": 40.5245736,
      "lng": 72.7979822
    },
    "_id": "69c76e3fb777c6b7a09c3dc4",
    "name": "Поликлиника №1",
    "address": "Поликлиника №1, Andijon, Oʻzbekiston",
    "type": "point",
    "radius": 30,
    "points": [],
    "createdAt": "2026-03-28T05:59:27.953Z",
    "__v": 0
  },
  {
    "location": {
      "lat": 40.542431,
      "lng": 72.8004855
    },
    "_id": "69c76e3fb777c6b7a09c3dc5",
    "name": "Поликлиника №2",
    "address": "Поликлиника №2, Andijon, Oʻzbekiston",
    "type": "point",
    "radius": 30,
    "points": [],
    "createdAt": "2026-03-28T05:59:27.953Z",
    "__v": 0
  },
  {
    "location": {
      "lat": 40.5571856,
      "lng": 72.8032872
    },
    "_id": "69c76e3fb777c6b7a09c3dc6",
    "name": "Айыл банк",
    "address": "Айыл банк, Andijon, Oʻzbekiston",
    "type": "point",
    "radius": 20,
    "points": [],
    "createdAt": "2026-03-28T05:59:27.953Z",
    "__v": 0
  },
  {
    "location": {
      "lat": 40.5838542,
      "lng": 72.8161848
    },
    "_id": "69c76e3fb777c6b7a09c3dc7",
    "name": "Югоил",
    "address": "Югоил, Andijon, Oʻzbekiston",
    "type": "point",
    "radius": 25,
    "points": [],
    "createdAt": "2026-03-28T05:59:27.953Z",
    "__v": 0
  },
  {
    "location": {
      "lat": 40.4985906,
      "lng": 72.3332224
    },
    "_id": "69c76e3fb777c6b7a09c3dc8",
    "name": "Marhamat Kiyim Bozori",
    "address": "Marhamat Kiyim Bozori, Andijon, Oʻzbekiston",
    "type": "point",
    "radius": 30,
    "points": [],
    "createdAt": "2026-03-28T05:59:27.953Z",
    "__v": 0
  },
  {
    "location": {
      "lat": 40.545609,
      "lng": 72.8011924
    },
    "_id": "69c76e3fb777c6b7a09c3dca",
    "name": "Convenience",
    "address": "Andijon, Oʻzbekiston",
    "type": "point",
    "radius": 30,
    "points": [],
    "createdAt": "2026-03-28T05:59:27.953Z",
    "__v": 0
  },
  {
    "location": {
      "lat": 40.5455551,
      "lng": 72.8013642
    },
    "_id": "69c76e3fb777c6b7a09c3dcb",
    "name": "Copyshop",
    "address": "Andijon, Oʻzbekiston",
    "type": "point",
    "radius": 15,
    "points": [],
    "createdAt": "2026-03-28T05:59:27.953Z",
    "__v": 0
  },
  {
    "location": {
      "lat": 40.5505166,
      "lng": 72.7983778
    },
    "_id": "69c76e3fb777c6b7a09c3dcc",
    "name": "Склад для лесоматериалов",
    "address": "Склад для лесоматериалов, Andijon, Oʻzbekiston",
    "type": "point",
    "radius": 20,
    "points": [],
    "createdAt": "2026-03-28T05:59:27.953Z",
    "__v": 0
  },
  {
    "location": {
      "lat": 40.5456484,
      "lng": 72.8013372
    },
    "_id": "69c76e3fb777c6b7a09c3dcd",
    "name": "Mobile Phone",
    "address": "Andijon, Oʻzbekiston",
    "type": "point",
    "radius": 15,
    "points": [],
    "createdAt": "2026-03-28T05:59:27.953Z",
    "__v": 0
  },
  {
    "location": {
      "lat": 40.5481595,
      "lng": 72.7964752
    },
    "_id": "69c76e3fb777c6b7a09c3dce",
    "name": "Pharmacy",
    "address": "Andijon, Oʻzbekiston",
    "type": "point",
    "radius": 20,
    "points": [],
    "createdAt": "2026-03-28T05:59:27.953Z",
    "__v": 0
  },
  {
    "location": {
      "lat": 40.5487384,
      "lng": 72.796266
    },
    "_id": "69c76e3fb777c6b7a09c3dcf",
    "name": "Детская Городкая Больница",
    "address": "Детская Городкая Больница, Andijon, Oʻzbekiston",
    "type": "point",
    "radius": 25,
    "points": [],
    "createdAt": "2026-03-28T05:59:27.953Z",
    "__v": 0
  },
  {
    "location": {
      "lat": 40.5485244,
      "lng": 72.7959334
    },
    "_id": "69c76e3fb777c6b7a09c3dd0",
    "name": "Hospital",
    "address": "Andijon, Oʻzbekiston",
    "type": "point",
    "radius": 20,
    "points": [],
    "createdAt": "2026-03-28T05:59:27.953Z",
    "__v": 0
  },
  {
    "location": {
      "lat": 40.5501808,
      "lng": 72.7520885
    },
    "_id": "69c76e3fb777c6b7a09c3dd1",
    "name": "Отор",
    "address": "Отор, Andijon, Oʻzbekiston",
    "type": "point",
    "radius": 20,
    "points": [],
    "createdAt": "2026-03-28T05:59:27.953Z",
    "__v": 0
  },
  {
    "location": {
      "lat": 40.5663651,
      "lng": 72.8057162
    },
    "_id": "69c76e3fb777c6b7a09c3dc0",
    "name": "Народный",
    "address": "Народный, Andijon, Oʻzbekiston",
    "type": "point",
    "radius": 20,
    "points": [],
    "createdAt": "2026-03-28T05:59:27.952Z",
    "__v": 0
  },
  {
    "location": {
      "lat": 40.5560921,
      "lng": 72.8034183
    },
    "_id": "69c76e3fb777c6b7a09c3dbf",
    "name": "Каныкей",
    "address": "Каныкей, Andijon, Oʻzbekiston",
    "type": "point",
    "radius": 25,
    "points": [],
    "createdAt": "2026-03-28T05:59:27.952Z",
    "__v": 0
  },
  {
    "location": {
      "lat": 40.721068,
      "lng": 72.6393284
    },
    "_id": "69c76e3fb777c6b7a09c3dbe",
    "name": "Cafe",
    "address": "Andijon, Oʻzbekiston",
    "type": "point",
    "radius": 30,
    "points": [],
    "createdAt": "2026-03-28T05:59:27.952Z",
    "__v": 0
  },
  {
    "location": {
      "lat": 40.523162,
      "lng": 72.7987504
    },
    "_id": "69c76e3fb777c6b7a09c3dbd",
    "name": "Акниет",
    "address": "Акниет, Andijon, Oʻzbekiston",
    "type": "point",
    "radius": 25,
    "points": [],
    "createdAt": "2026-03-28T05:59:27.867Z",
    "__v": 0
  },
  {
    "location": {
      "lat": 40.5421181,
      "lng": 72.7996404
    },
    "_id": "69c76e3fb777c6b7a09c3db7",
    "name": "Маленькая Япония",
    "address": "Маленькая Япония, Andijon, Oʻzbekiston",
    "type": "point",
    "radius": 20,
    "points": [],
    "createdAt": "2026-03-28T05:59:27.867Z",
    "__v": 0
  },
  {
    "location": {
      "lat": 40.5422014,
      "lng": 72.7998747
    },
    "_id": "69c76e3fb777c6b7a09c3db8",
    "name": "Айгулгул",
    "address": "Айгулгул, Andijon, Oʻzbekiston",
    "type": "point",
    "radius": 30,
    "points": [],
    "createdAt": "2026-03-28T05:59:27.867Z",
    "__v": 0
  },
  {
    "location": {
      "lat": 40.5260708,
      "lng": 72.7722334
    },
    "_id": "69c76e3fb777c6b7a09c3db9",
    "name": "Ал Майда",
    "address": "Ал Майда, Andijon, Oʻzbekiston",
    "type": "point",
    "radius": 20,
    "points": [],
    "createdAt": "2026-03-28T05:59:27.867Z",
    "__v": 0
  },
  {
    "location": {
      "lat": 40.5149788,
      "lng": 72.8027099
    },
    "_id": "69c76e3fb777c6b7a09c3dbb",
    "name": "Hospital",
    "address": "Andijon, Oʻzbekiston",
    "type": "point",
    "radius": 15,
    "points": [],
    "createdAt": "2026-03-28T05:59:27.867Z",
    "__v": 0
  },
  {
    "location": {
      "lat": 41.0761192,
      "lng": 71.9741022
    },
    "_id": "69c76e3fb777c6b7a09c3dbc",
    "name": "Hizirobod",
    "address": "Hizirobod, Andijon, Oʻzbekiston",
    "type": "point",
    "radius": 40,
    "points": [],
    "createdAt": "2026-03-28T05:59:27.867Z",
    "__v": 0
  },
  {
    "location": {
      "lat": 40.5561035,
      "lng": 72.8034953
    },
    "_id": "69c76e3fb777c6b7a09c3dba",
    "name": "Каныкей",
    "address": "Исхака Разакова улица, Andijon, Oʻzbekiston",
    "type": "point",
    "radius": 15,
    "points": [],
    "createdAt": "2026-03-28T05:59:27.867Z",
    "__v": 0
  },
  {
    "location": {
      "lat": 40.5426923,
      "lng": 72.7902885
    },
    "_id": "69c76e3fb777c6b7a09c3db6",
    "name": "Фартук.kg",
    "address": "Фартук.kg, Andijon, Oʻzbekiston",
    "type": "point",
    "radius": 30,
    "points": [],
    "createdAt": "2026-03-28T05:59:27.866Z",
    "__v": 0
  },
  {
    "location": {
      "lat": 40.455987,
      "lng": 72.5683616
    },
    "_id": "69c76e3fb777c6b7a09c3dae",
    "name": "Мангыт",
    "address": "Мангыт, Andijon, Oʻzbekiston",
    "type": "point",
    "radius": 40,
    "points": [],
    "createdAt": "2026-03-28T05:59:27.865Z",
    "__v": 0
  },
  {
    "location": {
      "lat": 40.5046267,
      "lng": 72.3323207
    },
    "_id": "69c76e3fb777c6b7a09c3da9",
    "name": "Турон",
    "address": "Турон, Andijon, Oʻzbekiston",
    "type": "point",
    "radius": 25,
    "points": [],
    "createdAt": "2026-03-28T05:59:27.865Z",
    "__v": 0
  },
  {
    "location": {
      "lat": 40.503614,
      "lng": 72.3350486
    },
    "_id": "69c76e3fb777c6b7a09c3daa",
    "name": "Скорая Помощь",
    "address": "Ипак йули улица, Andijon, Oʻzbekiston",
    "type": "point",
    "radius": 20,
    "points": [],
    "createdAt": "2026-03-28T05:59:27.865Z",
    "__v": 0
  },
  {
    "location": {
      "lat": 40.5031159,
      "lng": 72.3335444
    },
    "_id": "69c76e3fb777c6b7a09c3dab",
    "name": "Универмаг",
    "address": "Мустакиллик улица, Andijon, Oʻzbekiston",
    "type": "point",
    "radius": 15,
    "points": [],
    "createdAt": "2026-03-28T05:59:27.865Z",
    "__v": 0
  },
  {
    "location": {
      "lat": 40.503902,
      "lng": 72.3361238
    },
    "_id": "69c76e3fb777c6b7a09c3dac",
    "name": "Бешбола",
    "address": "Бешбола, Andijon, Oʻzbekiston",
    "type": "point",
    "radius": 20,
    "points": [],
    "createdAt": "2026-03-28T05:59:27.865Z",
    "__v": 0
  },
  {
    "location": {
      "lat": 40.6087468,
      "lng": 72.3909154
    },
    "_id": "69c76e3fb777c6b7a09c3dad",
    "name": "Арап",
    "address": "Арап, Andijon, Oʻzbekiston",
    "type": "point",
    "radius": 30,
    "points": [],
    "createdAt": "2026-03-28T05:59:27.865Z",
    "__v": 0
  },
  {
    "location": {
      "lat": 41.0915895,
      "lng": 72.6871698
    },
    "_id": "69c76e3fb777c6b7a09c3daf",
    "name": "инвалид интернат",
    "address": "инвалид интернат, Andijon, Oʻzbekiston",
    "type": "point",
    "radius": 20,
    "points": [],
    "createdAt": "2026-03-28T05:59:27.865Z",
    "__v": 0
  },
  {
    "location": {
      "lat": 40.5977622,
      "lng": 72.4006422
    },
    "_id": "69c76e3fb777c6b7a09c3db0",
    "name": "Village",
    "address": "Village, Andijon, Oʻzbekiston",
    "type": "point",
    "radius": 30,
    "points": [],
    "createdAt": "2026-03-28T05:59:27.865Z",
    "__v": 0
  },
  {
    "location": {
      "lat": 40.5079548,
      "lng": 72.4451903
    },
    "_id": "69c76e3fb777c6b7a09c3db1",
    "name": "Көчүбаев",
    "address": "Көчүбаев, Andijon, Oʻzbekiston",
    "type": "point",
    "radius": 50,
    "points": [],
    "createdAt": "2026-03-28T05:59:27.865Z",
    "__v": 0
  },
  {
    "location": {
      "lat": 40.5018895,
      "lng": 72.4710736
    },
    "_id": "69c76e3fb777c6b7a09c3db2",
    "name": "Пахтачи",
    "address": "Пахтачи, Andijon, Oʻzbekiston",
    "type": "point",
    "radius": 30,
    "points": [],
    "createdAt": "2026-03-28T05:59:27.865Z",
    "__v": 0
  },
  {
    "location": {
      "lat": 40.5340103,
      "lng": 72.7940994
    },
    "_id": "69c76e3fb777c6b7a09c3db3",
    "name": "Фартук.kg",
    "address": "Фартук.kg, Andijon, Oʻzbekiston",
    "type": "point",
    "radius": 25,
    "points": [],
    "createdAt": "2026-03-28T05:59:27.865Z",
    "__v": 0
  },
  {
    "location": {
      "lat": 40.5449583,
      "lng": 72.7852744
    },
    "_id": "69c76e3fb777c6b7a09c3db4",
    "name": "Курманжан датка",
    "address": "Курманжан датка, Andijon, Oʻzbekiston",
    "type": "point",
    "radius": 25,
    "points": [],
    "createdAt": "2026-03-28T05:59:27.865Z",
    "__v": 0
  },
  {
    "location": {
      "lat": 40.5356656,
      "lng": 72.7903457
    },
    "_id": "69c76e3fb777c6b7a09c3db5",
    "name": "Фартук.kg",
    "address": "Фартук.kg, Andijon, Oʻzbekiston",
    "type": "point",
    "radius": 20,
    "points": [],
    "createdAt": "2026-03-28T05:59:27.865Z",
    "__v": 0
  },
  {
    "location": {
      "lat": 40.5194514,
      "lng": 72.7665962
    },
    "_id": "69c76e3fb777c6b7a09c3d9e",
    "name": "Alcohol",
    "address": "мкр Анар, Andijon, Oʻzbekiston",
    "type": "point",
    "radius": 30,
    "points": [],
    "createdAt": "2026-03-28T05:59:27.864Z",
    "__v": 0
  },
  {
    "location": {
      "lat": 40.5202302,
      "lng": 72.7668866
    },
    "_id": "69c76e3fb777c6b7a09c3d9b",
    "name": "Азык ордо",
    "address": "улица Р.Абдыкадырова, Andijon, Oʻzbekiston",
    "type": "point",
    "radius": 15,
    "points": [],
    "createdAt": "2026-03-28T05:59:27.864Z",
    "__v": 0
  },
  {
    "location": {
      "lat": 40.5200833,
      "lng": 72.76638
    },
    "_id": "69c76e3fb777c6b7a09c3d9c",
    "name": "Butcher",
    "address": "улица Р.Абдыкадырова, Andijon, Oʻzbekiston",
    "type": "point",
    "radius": 15,
    "points": [],
    "createdAt": "2026-03-28T05:59:27.864Z",
    "__v": 0
  },
  {
    "location": {
      "lat": 40.5201935,
      "lng": 72.766803
    },
    "_id": "69c76e3fb777c6b7a09c3d9d",
    "name": "Арзуу",
    "address": "улица Р.Абдыкадырова, Andijon, Oʻzbekiston",
    "type": "point",
    "radius": 25,
    "points": [],
    "createdAt": "2026-03-28T05:59:27.864Z",
    "__v": 0
  },
  {
    "location": {
      "lat": 40.5202729,
      "lng": 72.7669849
    },
    "_id": "69c76e3fb777c6b7a09c3d9a",
    "name": "Чикен",
    "address": "Чикен, Andijon, Oʻzbekiston",
    "type": "point",
    "radius": 25,
    "points": [],
    "createdAt": "2026-03-28T05:59:27.864Z",
    "__v": 0
  },
  {
    "location": {
      "lat": 40.5058388,
      "lng": 72.3337855
    },
    "_id": "69c76e3fb777c6b7a09c3d9f",
    "name": "Фарход кафе",
    "address": "Ипак Йули, Andijon, Oʻzbekiston",
    "type": "point",
    "radius": 30,
    "points": [],
    "createdAt": "2026-03-28T05:59:27.864Z",
    "__v": 0
  },
  {
    "location": {
      "lat": 40.5074933,
      "lng": 72.3337025
    },
    "_id": "69c76e3fb777c6b7a09c3da0",
    "name": "Car",
    "address": "Ипак Йули, Andijon, Oʻzbekiston",
    "type": "point",
    "radius": 20,
    "points": [],
    "createdAt": "2026-03-28T05:59:27.864Z",
    "__v": 0
  },
  {
    "location": {
      "lat": 40.503279,
      "lng": 72.3327459
    },
    "_id": "69c76e3fb777c6b7a09c3da1",
    "name": "Telephone",
    "address": "Andijon, Oʻzbekiston",
    "type": "point",
    "radius": 20,
    "points": [],
    "createdAt": "2026-03-28T05:59:27.864Z",
    "__v": 0
  },
  {
    "location": {
      "lat": 40.4989609,
      "lng": 72.3315531
    },
    "_id": "69c76e3fb777c6b7a09c3da3",
    "name": "Car Repair",
    "address": "Andijon, Oʻzbekiston",
    "type": "point",
    "radius": 25,
    "points": [],
    "createdAt": "2026-03-28T05:59:27.864Z",
    "__v": 0
  },
  {
    "location": {
      "lat": 40.7783996,
      "lng": 72.3498794
    },
    "_id": "69c76e3fb777c6b7a09c3da4",
    "name": "Смарт бытовая техника",
    "address": "Смарт бытовая техника, Andijon, Oʻzbekiston",
    "type": "point",
    "radius": 15,
    "points": [],
    "createdAt": "2026-03-28T05:59:27.864Z",
    "__v": 0
  },
  {
    "location": {
      "lat": 40.7841473,
      "lng": 72.3482093
    },
    "_id": "69c76e3fb777c6b7a09c3da5",
    "name": "Gullar do'koni",
    "address": "Gullar do'koni, Andijon, Oʻzbekiston",
    "type": "point",
    "radius": 15,
    "points": [],
    "createdAt": "2026-03-28T05:59:27.864Z",
    "__v": 0
  },
  {
    "location": {
      "lat": 40.7912253,
      "lng": 72.7529699
    },
    "_id": "69c76e3fb777c6b7a09c3da6",
    "name": "Синикчи хола",
    "address": "Синикчи хола, Andijon, Oʻzbekiston",
    "type": "point",
    "radius": 30,
    "points": [],
    "createdAt": "2026-03-28T05:59:27.864Z",
    "__v": 0
  },
  {
    "location": {
      "lat": 40.500605,
      "lng": 72.3460254
    },
    "_id": "69c76e3fb777c6b7a09c3da7",
    "name": "NBU",
    "address": "NBU, Andijon, Oʻzbekiston",
    "type": "point",
    "radius": 15,
    "points": [],
    "createdAt": "2026-03-28T05:59:27.864Z",
    "__v": 0
  },
  {
    "location": {
      "lat": 40.5043129,
      "lng": 72.3347958
    },
    "_id": "69c76e3fb777c6b7a09c3da8",
    "name": "Почта",
    "address": "Почта, Andijon, Oʻzbekiston",
    "type": "point",
    "radius": 15,
    "points": [],
    "createdAt": "2026-03-28T05:59:27.864Z",
    "__v": 0
  },
  {
    "location": {
      "lat": 40.5181516,
      "lng": 72.8022192
    },
    "_id": "69c76e3fb777c6b7a09c3da2",
    "name": "БТА Банк",
    "address": "БТА Банк, Andijon, Oʻzbekiston",
    "type": "point",
    "radius": 25,
    "points": [],
    "createdAt": "2026-03-28T05:59:27.864Z",
    "__v": 0
  },
  {
    "location": {
      "lat": 40.5121131,
      "lng": 72.8099878
    },
    "_id": "69c76e3fb777c6b7a09c3d91",
    "name": "Финанс кредит банк сбер касса N 047-1-36",
    "address": "Джиннах М.А. улица, 1, Andijon, Oʻzbekiston",
    "type": "point",
    "radius": 20,
    "points": [],
    "createdAt": "2026-03-28T05:59:27.863Z",
    "__v": 0
  },
  {
    "location": {
      "lat": 40.7590762,
      "lng": 72.3540889
    },
    "_id": "69c76e3fb777c6b7a09c3d8c",
    "name": "Фарходбек парфюмерия",
    "address": "Фарходбек парфюмерия, Andijon, Oʻzbekiston",
    "type": "point",
    "radius": 30,
    "points": [],
    "createdAt": "2026-03-28T05:59:27.863Z",
    "__v": 0
  },
  {
    "location": {
      "lat": 40.7667291,
      "lng": 72.3595505
    },
    "_id": "69c76e3fb777c6b7a09c3d8d",
    "name": "Корейская кухня",
    "address": "Корейская кухня, Andijon, Oʻzbekiston",
    "type": "point",
    "radius": 30,
    "points": [],
    "createdAt": "2026-03-28T05:59:27.863Z",
    "__v": 0
  },
  {
    "location": {
      "lat": 40.6859951,
      "lng": 72.864737
    },
    "_id": "69c76e3fb777c6b7a09c3d8e",
    "name": "Hospital",
    "address": "Andijon, Oʻzbekiston",
    "type": "point",
    "radius": 25,
    "points": [],
    "createdAt": "2026-03-28T05:59:27.863Z",
    "__v": 0
  },
  {
    "location": {
      "lat": 40.5426898,
      "lng": 72.7902007
    },
    "_id": "69c76e3fb777c6b7a09c3d8f",
    "name": "Фартук.kg",
    "address": "Фартук.kg, Andijon, Oʻzbekiston",
    "type": "point",
    "radius": 25,
    "points": [],
    "createdAt": "2026-03-28T05:59:27.863Z",
    "__v": 0
  },
  {
    "location": {
      "lat": 40.7513838,
      "lng": 72.3281265
    },
    "_id": "69c76e3fb777c6b7a09c3d90",
    "name": "Вулканизация",
    "address": "Вулканизация, Andijon, Oʻzbekiston",
    "type": "point",
    "radius": 15,
    "points": [],
    "createdAt": "2026-03-28T05:59:27.863Z",
    "__v": 0
  },
  {
    "location": {
      "lat": 40.5345013,
      "lng": 72.8167078
    },
    "_id": "69c76e3fb777c6b7a09c3d92",
    "name": "Aluminium welding",
    "address": "Aluminium welding, Andijon, Oʻzbekiston",
    "type": "point",
    "radius": 30,
    "points": [],
    "createdAt": "2026-03-28T05:59:27.863Z",
    "__v": 0
  },
  {
    "location": {
      "lat": 40.8958675,
      "lng": 72.2449729
    },
    "_id": "69c76e3fb777c6b7a09c3d94",
    "name": "Theatre",
    "address": "Andijon, Oʻzbekiston",
    "type": "point",
    "radius": 30,
    "points": [],
    "createdAt": "2026-03-28T05:59:27.863Z",
    "__v": 0
  },
  {
    "location": {
      "lat": 40.5560958,
      "lng": 72.8034626
    },
    "_id": "69c76e3fb777c6b7a09c3d95",
    "name": "Каныкей",
    "address": "Каныкей, Andijon, Oʻzbekiston",
    "type": "point",
    "radius": 20,
    "points": [],
    "createdAt": "2026-03-28T05:59:27.863Z",
    "__v": 0
  },
  {
    "location": {
      "lat": 40.5545297,
      "lng": 72.8030685
    },
    "_id": "69c76e3fb777c6b7a09c3d96",
    "name": "Касиет",
    "address": "Касиет, Andijon, Oʻzbekiston",
    "type": "point",
    "radius": 20,
    "points": [],
    "createdAt": "2026-03-28T05:59:27.863Z",
    "__v": 0
  },
  {
    "location": {
      "lat": 40.5556765,
      "lng": 72.8033996
    },
    "_id": "69c76e3fb777c6b7a09c3d97",
    "name": "Fuel",
    "address": "Andijon, Oʻzbekiston",
    "type": "point",
    "radius": 15,
    "points": [],
    "createdAt": "2026-03-28T05:59:27.863Z",
    "__v": 0
  },
  {
    "location": {
      "lat": 40.6581125,
      "lng": 72.1408759
    },
    "_id": "69c76e3fb777c6b7a09c3d98",
    "name": "уста",
    "address": "уста, Andijon, Oʻzbekiston",
    "type": "point",
    "radius": 25,
    "points": [],
    "createdAt": "2026-03-28T05:59:27.863Z",
    "__v": 0
  },
  {
    "location": {
      "lat": 40.5263356,
      "lng": 72.7954353
    },
    "_id": "69c76e3fb777c6b7a09c3d99",
    "name": "У подруги",
    "address": "У подруги, Andijon, Oʻzbekiston",
    "type": "point",
    "radius": 20,
    "points": [],
    "createdAt": "2026-03-28T05:59:27.863Z",
    "__v": 0
  },
  {
    "location": {
      "lat": 40.5448972,
      "lng": 72.902599
    },
    "_id": "69c76e3fb777c6b7a09c3d93",
    "name": "\"Байы-Ата\"",
    "address": "достук, Andijon, Oʻzbekiston",
    "type": "point",
    "radius": 15,
    "points": [],
    "createdAt": "2026-03-28T05:59:27.863Z",
    "__v": 0
  },
  {
    "location": {
      "lat": 40.597875,
      "lng": 72.392665
    },
    "_id": "69c76e3fb777c6b7a09c3d8a",
    "name": "МолБулак",
    "address": "Кесов б.н, Andijon, Oʻzbekiston",
    "type": "point",
    "radius": 30,
    "points": [],
    "createdAt": "2026-03-28T05:59:27.862Z",
    "__v": 0
  },
  {
    "location": {
      "lat": 40.7840463,
      "lng": 72.346328
    },
    "_id": "69c76e3fb777c6b7a09c3d89",
    "name": "Fast Food",
    "address": "Andijon, Oʻzbekiston",
    "type": "point",
    "radius": 25,
    "points": [],
    "createdAt": "2026-03-28T05:59:27.862Z",
    "__v": 0
  },
  {
    "location": {
      "lat": 40.7519714,
      "lng": 72.3419809
    },
    "_id": "69c76e3fb777c6b7a09c3d8b",
    "name": "Микрокредит банк",
    "address": "Микрокредит банк, Andijon, Oʻzbekiston",
    "type": "point",
    "radius": 15,
    "points": [],
    "createdAt": "2026-03-28T05:59:27.862Z",
    "__v": 0
  },
  {
    "location": {
      "lat": 40.549754,
      "lng": 72.800368
    },
    "_id": "69c76e3fb777c6b7a09c3d88",
    "name": "Bank",
    "address": "Andijon, Oʻzbekiston",
    "type": "point",
    "radius": 25,
    "points": [],
    "createdAt": "2026-03-28T05:59:27.858Z",
    "__v": 0
  },
  {
    "location": {
      "lat": 40.7863562,
      "lng": 72.3488782
    },
    "_id": "69c76e3fb777c6b7a09c3d83",
    "name": "Parfum Gallery",
    "address": "Cho'lpon shoh ko'chasi, 10, Andijon, Oʻzbekiston",
    "type": "point",
    "radius": 30,
    "points": [],
    "createdAt": "2026-03-28T05:59:27.857Z",
    "__v": 0
  },
  {
    "location": {
      "lat": 40.7932387,
      "lng": 72.3504885
    },
    "_id": "69c76e3fb777c6b7a09c3d7b",
    "name": "Детская стоматологическая поликлиника",
    "address": "Детская стоматологическая поликлиника, Andijon, Oʻzbekiston",
    "type": "point",
    "radius": 25,
    "points": [],
    "createdAt": "2026-03-28T05:59:27.857Z",
    "__v": 0
  },
  {
    "location": {
      "lat": 40.7861713,
      "lng": 72.3490559
    },
    "_id": "69c76e3fb777c6b7a09c3d7c",
    "name": "LES AILES fried chicken & barbecue",
    "address": "Cho'lpon shoh ko'chasi, 10, Andijon, Oʻzbekiston",
    "type": "point",
    "radius": 15,
    "points": [],
    "createdAt": "2026-03-28T05:59:27.857Z",
    "__v": 0
  },
  {
    "location": {
      "lat": 40.7613055,
      "lng": 72.3231333
    },
    "_id": "69c76e3fb777c6b7a09c3d7d",
    "name": "Jalabek",
    "address": "Jalabek, Andijon, Oʻzbekiston",
    "type": "point",
    "radius": 40,
    "points": [],
    "createdAt": "2026-03-28T05:59:27.857Z",
    "__v": 0
  },
  {
    "location": {
      "lat": 40.7862287,
      "lng": 72.3486603
    },
    "_id": "69c76e3fb777c6b7a09c3d7e",
    "name": "PERSEY магазин детской обуви",
    "address": "Cho'lpon shoh ko'chasi, 10, Andijon, Oʻzbekiston",
    "type": "point",
    "radius": 25,
    "points": [],
    "createdAt": "2026-03-28T05:59:27.857Z",
    "__v": 0
  },
  {
    "location": {
      "lat": 40.6485398,
      "lng": 72.2468356
    },
    "_id": "69c76e3fb777c6b7a09c3d7a",
    "name": "Hilol nashr",
    "address": "ул. Тошлок, Andijon, Oʻzbekiston",
    "type": "point",
    "radius": 20,
    "points": [],
    "createdAt": "2026-03-28T05:59:27.857Z",
    "__v": 0
  },
  {
    "location": {
      "lat": 40.7859825,
      "lng": 72.3487163
    },
    "_id": "69c76e3fb777c6b7a09c3d7f",
    "name": "JOY магазин детской одежды",
    "address": "Cho'lpon shoh ko'chasi, 10, Andijon, Oʻzbekiston",
    "type": "point",
    "radius": 15,
    "points": [],
    "createdAt": "2026-03-28T05:59:27.857Z",
    "__v": 0
  },
  {
    "location": {
      "lat": 40.7862864,
      "lng": 72.3487216
    },
    "_id": "69c76e3fb777c6b7a09c3d80",
    "name": "PHILIPP PLEIN спорт магазин",
    "address": "Cho'lpon shoh ko'chasi, 10, Andijon, Oʻzbekiston",
    "type": "point",
    "radius": 20,
    "points": [],
    "createdAt": "2026-03-28T05:59:27.857Z",
    "__v": 0
  },
  {
    "location": {
      "lat": 40.7862686,
      "lng": 72.3488469
    },
    "_id": "69c76e3fb777c6b7a09c3d82",
    "name": "O'zbegim cinema кинотеатр",
    "address": "Cho'lpon shoh ko'chasi, 10, Andijon, Oʻzbekiston",
    "type": "point",
    "radius": 15,
    "points": [],
    "createdAt": "2026-03-28T05:59:27.857Z",
    "__v": 0
  },
  {
    "location": {
      "lat": 40.7863479,
      "lng": 72.3486607
    },
    "_id": "69c76e3fb777c6b7a09c3d84",
    "name": "Аты-Баты магазин обуви",
    "address": "Cho'lpon shoh ko'chasi, 10, Andijon, Oʻzbekiston",
    "type": "point",
    "radius": 20,
    "points": [],
    "createdAt": "2026-03-28T05:59:27.857Z",
    "__v": 0
  },
  {
    "location": {
      "lat": 40.7862723,
      "lng": 72.349019
    },
    "_id": "69c76e3fb777c6b7a09c3d85",
    "name": "Ricco Cizzano магазин обуви",
    "address": "Cho'lpon shoh ko'chasi, 10, Andijon, Oʻzbekiston",
    "type": "point",
    "radius": 20,
    "points": [],
    "createdAt": "2026-03-28T05:59:27.857Z",
    "__v": 0
  },
  {
    "location": {
      "lat": 40.7949507,
      "lng": 72.4474107
    },
    "_id": "69c76e3fb777c6b7a09c3d86",
    "name": "Atm",
    "address": "Andijon, Oʻzbekiston",
    "type": "point",
    "radius": 30,
    "points": [],
    "createdAt": "2026-03-28T05:59:27.857Z",
    "__v": 0
  },
  {
    "location": {
      "lat": 40.774362,
      "lng": 72.3516581
    },
    "_id": "69c76e3fb777c6b7a09c3d87",
    "name": "Anhor кондитерская",
    "address": "Abdurauf Fitrat ko'chasi, Andijon, Oʻzbekiston",
    "type": "point",
    "radius": 15,
    "points": [],
    "createdAt": "2026-03-28T05:59:27.857Z",
    "__v": 0
  },
  {
    "location": {
      "lat": 40.7859507,
      "lng": 72.3488497
    },
    "_id": "69c76e3fb777c6b7a09c3d81",
    "name": "TERRA PRO магазин мужской одежды",
    "address": "Cho'lpon shoh ko'chasi, 10, Andijon, Oʻzbekiston",
    "type": "point",
    "radius": 25,
    "points": [],
    "createdAt": "2026-03-28T05:59:27.857Z",
    "__v": 0
  },
  {
    "location": {
      "lat": 40.7670861,
      "lng": 72.3583279
    },
    "_id": "69c76e3fb777c6b7a09c3d72",
    "name": "Orzu",
    "address": "Orzu, Andijon, Oʻzbekiston",
    "type": "point",
    "radius": 30,
    "points": [],
    "createdAt": "2026-03-28T05:59:27.856Z",
    "__v": 0
  },
  {
    "location": {
      "lat": 40.5278385,
      "lng": 72.7973732
    },
    "_id": "69c76e3fb777c6b7a09c3d6b",
    "name": "школа Кирова",
    "address": "школа Кирова, Andijon, Oʻzbekiston",
    "type": "point",
    "radius": 50,
    "points": [],
    "createdAt": "2026-03-28T05:59:27.856Z",
    "__v": 0
  },
  {
    "location": {
      "lat": 40.5185006,
      "lng": 72.7632151
    },
    "_id": "69c76e3fb777c6b7a09c3d6c",
    "name": "Supermarket",
    "address": "Andijon, Oʻzbekiston",
    "type": "point",
    "radius": 15,
    "points": [],
    "createdAt": "2026-03-28T05:59:27.856Z",
    "__v": 0
  },
  {
    "location": {
      "lat": 40.5188356,
      "lng": 72.7641634
    },
    "_id": "69c76e3fb777c6b7a09c3d6d",
    "name": "Кыргыз Мунай",
    "address": "Осмонова Б. улица, Andijon, Oʻzbekiston",
    "type": "point",
    "radius": 30,
    "points": [],
    "createdAt": "2026-03-28T05:59:27.856Z",
    "__v": 0
  },
  {
    "location": {
      "lat": 40.5392373,
      "lng": 72.7971829
    },
    "_id": "69c76e3fb777c6b7a09c3d6e",
    "name": "торг центр саидмухтар",
    "address": "Карасуйская, Andijon, Oʻzbekiston",
    "type": "point",
    "radius": 25,
    "points": [],
    "createdAt": "2026-03-28T05:59:27.856Z",
    "__v": 0
  },
  {
    "location": {
      "lat": 40.6145131,
      "lng": 72.8274257
    },
    "_id": "69c76e3fb777c6b7a09c3d6f",
    "name": "Fuel",
    "address": "Карасуйская улица, Andijon, Oʻzbekiston",
    "type": "point",
    "radius": 15,
    "points": [],
    "createdAt": "2026-03-28T05:59:27.856Z",
    "__v": 0
  },
  {
    "location": {
      "lat": 40.7383174,
      "lng": 72.3375726
    },
    "_id": "69c76e3fb777c6b7a09c3d70",
    "name": "Qoratut",
    "address": "Qoratut, Andijon, Oʻzbekiston",
    "type": "point",
    "radius": 50,
    "points": [],
    "createdAt": "2026-03-28T05:59:27.856Z",
    "__v": 0
  },
  {
    "location": {
      "lat": 40.7695919,
      "lng": 72.3418955
    },
    "_id": "69c76e3fb777c6b7a09c3d71",
    "name": "Hamkorbank",
    "address": "Bobur shoh ko'chasi, 85, Andijon, Oʻzbekiston",
    "type": "point",
    "radius": 30,
    "points": [],
    "createdAt": "2026-03-28T05:59:27.856Z",
    "__v": 0
  },
  {
    "location": {
      "lat": 40.7639014,
      "lng": 72.3523689
    },
    "_id": "69c76e3fb777c6b7a09c3d73",
    "name": "Scarlet",
    "address": "Scarlet, Andijon, Oʻzbekiston",
    "type": "point",
    "radius": 25,
    "points": [],
    "createdAt": "2026-03-28T05:59:27.856Z",
    "__v": 0
  },
  {
    "location": {
      "lat": 40.5340349,
      "lng": 72.7936745
    },
    "_id": "69c76e3fb777c6b7a09c3d74",
    "name": "Сервис Центр \"Profi\"",
    "address": "Курманжан Датка, 274, Ош, Andijon, Oʻzbekiston",
    "type": "point",
    "radius": 20,
    "points": [],
    "createdAt": "2026-03-28T05:59:27.856Z",
    "__v": 0
  },
  {
    "location": {
      "lat": 40.533406,
      "lng": 72.7937491
    },
    "_id": "69c76e3fb777c6b7a09c3d75",
    "name": "Полиграфический центр \"Алгоритм\"",
    "address": "Полиграфический центр \"Алгоритм\", Andijon, Oʻzbekiston",
    "type": "point",
    "radius": 25,
    "points": [],
    "createdAt": "2026-03-28T05:59:27.856Z",
    "__v": 0
  },
  {
    "location": {
      "lat": 40.6708452,
      "lng": 72.5609197
    },
    "_id": "69c76e3fb777c6b7a09c3d76",
    "name": "Xo'jaobod avto vokzali",
    "address": "ул. Узун, 1, Andijon, Oʻzbekiston",
    "type": "point",
    "radius": 15,
    "points": [],
    "createdAt": "2026-03-28T05:59:27.856Z",
    "__v": 0
  },
  {
    "location": {
      "lat": 40.7601147,
      "lng": 72.3536468
    },
    "_id": "69c76e3fb777c6b7a09c3d77",
    "name": "Samo textil",
    "address": "Миллий Тикланиш улица, Andijon, Oʻzbekiston",
    "type": "point",
    "radius": 20,
    "points": [],
    "createdAt": "2026-03-28T05:59:27.856Z",
    "__v": 0
  },
  {
    "location": {
      "lat": 40.7863556,
      "lng": 72.3490182
    },
    "_id": "69c76e3fb777c6b7a09c3d78",
    "name": "Makro",
    "address": "Cho'lpon shoh ko'chasi, 10, Andijon, Oʻzbekiston",
    "type": "point",
    "radius": 25,
    "points": [],
    "createdAt": "2026-03-28T05:59:27.856Z",
    "__v": 0
  },
  {
    "location": {
      "lat": 40.766318,
      "lng": 72.3573736
    },
    "_id": "69c76e3fb777c6b7a09c3d79",
    "name": "Bog'ishamol",
    "address": "Milliy Tiklanish ko'chasi, Andijon, Oʻzbekiston",
    "type": "point",
    "radius": 15,
    "points": [],
    "createdAt": "2026-03-28T05:59:27.856Z",
    "__v": 0
  },
  {
    "location": {
      "lat": 40.6693592,
      "lng": 72.1932489
    },
    "_id": "69c76e3fb777c6b7a09c3d61",
    "name": "Objuvoz",
    "address": "Objuvoz, Andijon, Oʻzbekiston",
    "type": "point",
    "radius": 30,
    "points": [],
    "createdAt": "2026-03-28T05:59:27.855Z",
    "__v": 0
  },
  {
    "location": {
      "lat": 40.7810279,
      "lng": 72.0959062
    },
    "_id": "69c76e3fb777c6b7a09c3d5e",
    "name": "Mamasolichek",
    "address": "Mamasolichek, Andijon, Oʻzbekiston",
    "type": "point",
    "radius": 40,
    "points": [],
    "createdAt": "2026-03-28T05:59:27.855Z",
    "__v": 0
  },
  {
    "location": {
      "lat": 40.7126247,
      "lng": 72.0877009
    },
    "_id": "69c76e3fb777c6b7a09c3d5f",
    "name": "Andijonlik",
    "address": "Andijonlik, Andijon, Oʻzbekiston",
    "type": "point",
    "radius": 50,
    "points": [],
    "createdAt": "2026-03-28T05:59:27.855Z",
    "__v": 0
  },
  {
    "location": {
      "lat": 40.6749414,
      "lng": 72.2292978
    },
    "_id": "69c76e3fb777c6b7a09c3d60",
    "name": "Village",
    "address": "Village, Andijon, Oʻzbekiston",
    "type": "point",
    "radius": 50,
    "points": [],
    "createdAt": "2026-03-28T05:59:27.855Z",
    "__v": 0
  },
  {
    "location": {
      "lat": 40.6356426,
      "lng": 72.1718717
    },
    "_id": "69c76e3fb777c6b7a09c3d62",
    "name": "Markayuz",
    "address": "Markayuz, Andijon, Oʻzbekiston",
    "type": "point",
    "radius": 50,
    "points": [],
    "createdAt": "2026-03-28T05:59:27.855Z",
    "__v": 0
  },
  {
    "location": {
      "lat": 40.7614827,
      "lng": 72.0939964
    },
    "_id": "69c76e3fb777c6b7a09c3d63",
    "name": "Jiyanbek",
    "address": "Jiyanbek, Andijon, Oʻzbekiston",
    "type": "point",
    "radius": 30,
    "points": [],
    "createdAt": "2026-03-28T05:59:27.855Z",
    "__v": 0
  },
  {
    "location": {
      "lat": 40.6894318,
      "lng": 72.2256178
    },
    "_id": "69c76e3fb777c6b7a09c3d64",
    "name": "Labgardon",
    "address": "Labgardon, Andijon, Oʻzbekiston",
    "type": "point",
    "radius": 40,
    "points": [],
    "createdAt": "2026-03-28T05:59:27.855Z",
    "__v": 0
  },
  {
    "location": {
      "lat": 40.625066,
      "lng": 72.0861606
    },
    "_id": "69c76e3fb777c6b7a09c3d66",
    "name": "Quruqsoy",
    "address": "Quruqsoy, Andijon, Oʻzbekiston",
    "type": "point",
    "radius": 30,
    "points": [],
    "createdAt": "2026-03-28T05:59:27.855Z",
    "__v": 0
  },
  {
    "location": {
      "lat": 40.7473332,
      "lng": 72.1603972
    },
    "_id": "69c76e3fb777c6b7a09c3d67",
    "name": "Qum",
    "address": "Qum, Andijon, Oʻzbekiston",
    "type": "point",
    "radius": 40,
    "points": [],
    "createdAt": "2026-03-28T05:59:27.855Z",
    "__v": 0
  },
  {
    "location": {
      "lat": 40.72883,
      "lng": 72.0923791
    },
    "_id": "69c76e3fb777c6b7a09c3d65",
    "name": "Oʻzbekiston",
    "address": "Oʻzbekiston, Andijon",
    "type": "point",
    "radius": 30,
    "points": [],
    "createdAt": "2026-03-28T05:59:27.855Z",
    "__v": 0
  },
  {
    "location": {
      "lat": 40.7024458,
      "lng": 72.08415
    },
    "_id": "69c76e3fb777c6b7a09c3d68",
    "name": "TegirmonBoshi",
    "address": "TegirmonBoshi, Andijon, Oʻzbekiston",
    "type": "point",
    "radius": 40,
    "points": [],
    "createdAt": "2026-03-28T05:59:27.855Z",
    "__v": 0
  },
  {
    "location": {
      "lat": 40.5881669,
      "lng": 72.1846303
    },
    "_id": "69c76e3fb777c6b7a09c3d69",
    "name": "School",
    "address": "Andijon, Oʻzbekiston",
    "type": "point",
    "radius": 25,
    "points": [],
    "createdAt": "2026-03-28T05:59:27.855Z",
    "__v": 0
  },
  {
    "location": {
      "lat": 40.8770989,
      "lng": 71.9791703
    },
    "_id": "69c76e3fb777c6b7a09c3d6a",
    "name": "Chinabad toyxona",
    "address": "Chinabad toyxona, Andijon, Oʻzbekiston",
    "type": "point",
    "radius": 15,
    "points": [],
    "createdAt": "2026-03-28T05:59:27.855Z",
    "__v": 0
  },
  {
    "location": {
      "lat": 40.7538923,
      "lng": 72.1581012
    },
    "_id": "69c76e3fb777c6b7a09c3d5d",
    "name": "Qipchok",
    "address": "Qipchok, Andijon, Oʻzbekiston",
    "type": "point",
    "radius": 40,
    "points": [],
    "createdAt": "2026-03-28T05:59:27.854Z",
    "__v": 0
  },
  {
    "location": {
      "lat": 40.7639287,
      "lng": 72.1888179
    },
    "_id": "69c76e3fb777c6b7a09c3d5c",
    "name": "Madyorchek",
    "address": "Madyorchek, Andijon, Oʻzbekiston",
    "type": "point",
    "radius": 30,
    "points": [],
    "createdAt": "2026-03-28T05:59:27.854Z",
    "__v": 0
  },
  {
    "location": {
      "lat": 40.7115863,
      "lng": 72.1646405
    },
    "_id": "69c76e3fb777c6b7a09c3d58",
    "name": "Segaza",
    "address": "Segaza, Andijon, Oʻzbekiston",
    "type": "point",
    "radius": 40,
    "points": [],
    "createdAt": "2026-03-28T05:59:27.853Z",
    "__v": 0
  },
  {
    "location": {
      "lat": 40.6475203,
      "lng": 72.1850038
    },
    "_id": "69c76e3fb777c6b7a09c3d53",
    "name": "Ozod",
    "address": "Ozod, Andijon, Oʻzbekiston",
    "type": "point",
    "radius": 50,
    "points": [],
    "createdAt": "2026-03-28T05:59:27.853Z",
    "__v": 0
  },
  {
    "location": {
      "lat": 40.6284204,
      "lng": 72.1494645
    },
    "_id": "69c76e3fb777c6b7a09c3d54",
    "name": "Ungut",
    "address": "Ungut, Andijon, Oʻzbekiston",
    "type": "point",
    "radius": 40,
    "points": [],
    "createdAt": "2026-03-28T05:59:27.853Z",
    "__v": 0
  },
  {
    "location": {
      "lat": 40.67978,
      "lng": 72.1929252
    },
    "_id": "69c76e3fb777c6b7a09c3d55",
    "name": "Oqboʻyra",
    "address": "Oqboʻyra, Andijon, Oʻzbekiston",
    "type": "point",
    "radius": 30,
    "points": [],
    "createdAt": "2026-03-28T05:59:27.853Z",
    "__v": 0
  },
  {
    "location": {
      "lat": 40.6939507,
      "lng": 72.1938229
    },
    "_id": "69c76e3fb777c6b7a09c3d56",
    "name": "Elashkipchoq",
    "address": "Elashkipchoq, Andijon, Oʻzbekiston",
    "type": "point",
    "radius": 50,
    "points": [],
    "createdAt": "2026-03-28T05:59:27.853Z",
    "__v": 0
  },
  {
    "location": {
      "lat": 40.6941358,
      "lng": 72.117455
    },
    "_id": "69c76e3fb777c6b7a09c3d57",
    "name": "Ahtalik",
    "address": "Ahtalik, Andijon, Oʻzbekiston",
    "type": "point",
    "radius": 50,
    "points": [],
    "createdAt": "2026-03-28T05:59:27.853Z",
    "__v": 0
  },
  {
    "location": {
      "lat": 40.7266866,
      "lng": 72.149384
    },
    "_id": "69c76e3fb777c6b7a09c3d59",
    "name": "Bekbachcha",
    "address": "Bekbachcha, Andijon, Oʻzbekiston",
    "type": "point",
    "radius": 30,
    "points": [],
    "createdAt": "2026-03-28T05:59:27.853Z",
    "__v": 0
  },
  {
    "location": {
      "lat": 40.7232473,
      "lng": 72.1802187
    },
    "_id": "69c76e3fb777c6b7a09c3d5a",
    "name": "Uzunko'cha",
    "address": "Uzunko'cha, Andijon, Oʻzbekiston",
    "type": "point",
    "radius": 50,
    "points": [],
    "createdAt": "2026-03-28T05:59:27.853Z",
    "__v": 0
  },
  {
    "location": {
      "lat": 40.7561677,
      "lng": 72.2206346
    },
    "_id": "69c76e3fb777c6b7a09c3d5b",
    "name": "Qayirma",
    "address": "Qayirma, Andijon, Oʻzbekiston",
    "type": "point",
    "radius": 30,
    "points": [],
    "createdAt": "2026-03-28T05:59:27.853Z",
    "__v": 0
  },
  {
    "location": {
      "lat": 40.6753167,
      "lng": 72.1107736
    },
    "_id": "69c76e3fb777c6b7a09c3d45",
    "name": "Honkuruq",
    "address": "Honkuruq, Andijon, Oʻzbekiston",
    "type": "point",
    "radius": 50,
    "points": [],
    "createdAt": "2026-03-28T05:59:27.852Z",
    "__v": 0
  },
  {
    "location": {
      "lat": 40.67207,
      "lng": 72.1322528
    },
    "_id": "69c76e3fb777c6b7a09c3d46",
    "name": "Ahmadbek",
    "address": "Ahmadbek, Andijon, Oʻzbekiston",
    "type": "point",
    "radius": 50,
    "points": [],
    "createdAt": "2026-03-28T05:59:27.852Z",
    "__v": 0
  },
  {
    "location": {
      "lat": 40.6631041,
      "lng": 72.1022657
    },
    "_id": "69c76e3fb777c6b7a09c3d47",
    "name": "Eshonkishloq",
    "address": "Eshonkishloq, Andijon, Oʻzbekiston",
    "type": "point",
    "radius": 40,
    "points": [],
    "createdAt": "2026-03-28T05:59:27.852Z",
    "__v": 0
  },
  {
    "location": {
      "lat": 40.6565571,
      "lng": 72.0825863
    },
    "_id": "69c76e3fb777c6b7a09c3d48",
    "name": "Choʻja",
    "address": "Choʻja, Andijon, Oʻzbekiston",
    "type": "point",
    "radius": 50,
    "points": [],
    "createdAt": "2026-03-28T05:59:27.852Z",
    "__v": 0
  },
  {
    "location": {
      "lat": 40.6486569,
      "lng": 72.0672924
    },
    "_id": "69c76e3fb777c6b7a09c3d49",
    "name": "Azamat",
    "address": "Azamat, Andijon, Oʻzbekiston",
    "type": "point",
    "radius": 40,
    "points": [],
    "createdAt": "2026-03-28T05:59:27.852Z",
    "__v": 0
  },
  {
    "location": {
      "lat": 40.7736428,
      "lng": 72.0570034
    },
    "_id": "69c76e3fb777c6b7a09c3d4a",
    "name": "Tumor",
    "address": "Tumor, Andijon, Oʻzbekiston",
    "type": "point",
    "radius": 50,
    "points": [],
    "createdAt": "2026-03-28T05:59:27.852Z",
    "__v": 0
  },
  {
    "location": {
      "lat": 40.7231283,
      "lng": 72.0880553
    },
    "_id": "69c76e3fb777c6b7a09c3d4b",
    "name": "Yangimahalla",
    "address": "Yangimahalla, Andijon, Oʻzbekiston",
    "type": "point",
    "radius": 30,
    "points": [],
    "createdAt": "2026-03-28T05:59:27.852Z",
    "__v": 0
  },
  {
    "location": {
      "lat": 40.6329413,
      "lng": 72.0809507
    },
    "_id": "69c76e3fb777c6b7a09c3d4d",
    "name": "Yangi-Naynavo",
    "address": "Yangi-Naynavo, Andijon, Oʻzbekiston",
    "type": "point",
    "radius": 30,
    "points": [],
    "createdAt": "2026-03-28T05:59:27.852Z",
    "__v": 0
  },
  {
    "location": {
      "lat": 40.7818851,
      "lng": 72.6540968
    },
    "_id": "69c76e3fb777c6b7a09c3d4e",
    "name": "Балгария",
    "address": "Балгария, Andijon, Oʻzbekiston",
    "type": "point",
    "radius": 30,
    "points": [],
    "createdAt": "2026-03-28T05:59:27.852Z",
    "__v": 0
  },
  {
    "location": {
      "lat": 40.6649485,
      "lng": 72.2147066
    },
    "_id": "69c76e3fb777c6b7a09c3d4f",
    "name": "Tuvadoq",
    "address": "Tuvadoq, Andijon, Oʻzbekiston",
    "type": "point",
    "radius": 30,
    "points": [],
    "createdAt": "2026-03-28T05:59:27.852Z",
    "__v": 0
  },
  {
    "location": {
      "lat": 40.6727932,
      "lng": 72.1703106
    },
    "_id": "69c76e3fb777c6b7a09c3d50",
    "name": "Chumbogish",
    "address": "Chumbogish, Andijon, Oʻzbekiston",
    "type": "point",
    "radius": 40,
    "points": [],
    "createdAt": "2026-03-28T05:59:27.852Z",
    "__v": 0
  },
  {
    "location": {
      "lat": 40.6475488,
      "lng": 72.2118956
    },
    "_id": "69c76e3fb777c6b7a09c3d51",
    "name": "Асака",
    "address": "Асака, Andijon, Oʻzbekiston",
    "type": "point",
    "radius": 40,
    "points": [],
    "createdAt": "2026-03-28T05:59:27.852Z",
    "__v": 0
  },
  {
    "location": {
      "lat": 40.6216784,
      "lng": 72.1752609
    },
    "_id": "69c76e3fb777c6b7a09c3d52",
    "name": "Qayrag'ochariq",
    "address": "Qayrag'ochariq, Andijon, Oʻzbekiston",
    "type": "point",
    "radius": 30,
    "points": [],
    "createdAt": "2026-03-28T05:59:27.852Z",
    "__v": 0
  },
  {
    "location": {
      "lat": 40.6331616,
      "lng": 72.1090429
    },
    "_id": "69c76e3fb777c6b7a09c3d4c",
    "name": "Bo'ston",
    "address": "Bo'ston, Andijon, Oʻzbekiston",
    "type": "point",
    "radius": 50,
    "points": [],
    "createdAt": "2026-03-28T05:59:27.852Z",
    "__v": 0
  },
  {
    "location": {
      "lat": 40.6781931,
      "lng": 72.0861617
    },
    "_id": "69c76e3fb777c6b7a09c3d44",
    "name": "Chuqurcha",
    "address": "Chuqurcha, Andijon, Oʻzbekiston",
    "type": "point",
    "radius": 40,
    "points": [],
    "createdAt": "2026-03-28T05:59:27.851Z",
    "__v": 0
  },
  {
    "location": {
      "lat": 40.6889894,
      "lng": 72.0765433
    },
    "_id": "69c76e3fb777c6b7a09c3d43",
    "name": "Dorikash",
    "address": "Dorikash, Andijon, Oʻzbekiston",
    "type": "point",
    "radius": 40,
    "points": [],
    "createdAt": "2026-03-28T05:59:27.851Z",
    "__v": 0
  },
  {
    "location": {
      "lat": 40.7411332,
      "lng": 72.0990712
    },
    "_id": "69c76e3fb777c6b7a09c3d41",
    "name": "Mathoshim",
    "address": "Mathoshim, Andijon, Oʻzbekiston",
    "type": "point",
    "radius": 30,
    "points": [],
    "createdAt": "2026-03-28T05:59:27.766Z",
    "__v": 0
  },
  {
    "location": {
      "lat": 40.7521245,
      "lng": 72.1310324
    },
    "_id": "69c76e3fb777c6b7a09c3d3c",
    "name": "Ahmadhujachek",
    "address": "Ahmadhujachek, Andijon, Oʻzbekiston",
    "type": "point",
    "radius": 40,
    "points": [],
    "createdAt": "2026-03-28T05:59:27.766Z",
    "__v": 0
  },
  {
    "location": {
      "lat": 40.7630349,
      "lng": 72.1353132
    },
    "_id": "69c76e3fb777c6b7a09c3d3d",
    "name": "Qo'tarmachek",
    "address": "Qo'tarmachek, Andijon, Oʻzbekiston",
    "type": "point",
    "radius": 50,
    "points": [],
    "createdAt": "2026-03-28T05:59:27.766Z",
    "__v": 0
  },
  {
    "location": {
      "lat": 40.7711768,
      "lng": 72.1023649
    },
    "_id": "69c76e3fb777c6b7a09c3d3e",
    "name": "Узункўча",
    "address": "Узункўча, Andijon, Oʻzbekiston",
    "type": "point",
    "radius": 40,
    "points": [],
    "createdAt": "2026-03-28T05:59:27.766Z",
    "__v": 0
  },
  {
    "location": {
      "lat": 40.759122,
      "lng": 72.0713371
    },
    "_id": "69c76e3fb777c6b7a09c3d3f",
    "name": "Тojikmahalla",
    "address": "Тojikmahalla, Andijon, Oʻzbekiston",
    "type": "point",
    "radius": 30,
    "points": [],
    "createdAt": "2026-03-28T05:59:27.766Z",
    "__v": 0
  },
  {
    "location": {
      "lat": 40.7557676,
      "lng": 72.0511133
    },
    "_id": "69c76e3fb777c6b7a09c3d40",
    "name": "Tolmozor",
    "address": "Tolmozor, Andijon, Oʻzbekiston",
    "type": "point",
    "radius": 50,
    "points": [],
    "createdAt": "2026-03-28T05:59:27.766Z",
    "__v": 0
  },
  {
    "location": {
      "lat": 40.7365026,
      "lng": 72.0770261
    },
    "_id": "69c76e3fb777c6b7a09c3d42",
    "name": "Karnaychi",
    "address": "Karnaychi, Andijon, Oʻzbekiston",
    "type": "point",
    "radius": 30,
    "points": [],
    "createdAt": "2026-03-28T05:59:27.766Z",
    "__v": 0
  },
  {
    "location": {
      "lat": 40.7367292,
      "lng": 72.2302902
    },
    "_id": "69c76e3fb777c6b7a09c3d39",
    "name": "Qipchoq",
    "address": "Qipchoq, Andijon, Oʻzbekiston",
    "type": "point",
    "radius": 30,
    "points": [],
    "createdAt": "2026-03-28T05:59:27.765Z",
    "__v": 0
  },
  {
    "location": {
      "lat": 40.665274,
      "lng": 72.1622265
    },
    "_id": "69c76e3fb777c6b7a09c3d30",
    "name": "Toshtepa",
    "address": "Toshtepa, Andijon, Oʻzbekiston",
    "type": "point",
    "radius": 50,
    "points": [],
    "createdAt": "2026-03-28T05:59:27.765Z",
    "__v": 0
  },
  {
    "location": {
      "lat": 40.6385684,
      "lng": 72.1423688
    },
    "_id": "69c76e3fb777c6b7a09c3d31",
    "name": "Uchamak",
    "address": "Uchamak, Andijon, Oʻzbekiston",
    "type": "point",
    "radius": 50,
    "points": [],
    "createdAt": "2026-03-28T05:59:27.765Z",
    "__v": 0
  },
  {
    "location": {
      "lat": 40.6560599,
      "lng": 72.162102
    },
    "_id": "69c76e3fb777c6b7a09c3d2f",
    "name": "Qipchoqqo'rg'on",
    "address": "Qipchoqqo'rg'on, Andijon, Oʻzbekiston",
    "type": "point",
    "radius": 50,
    "points": [],
    "createdAt": "2026-03-28T05:59:27.765Z",
    "__v": 0
  },
  {
    "location": {
      "lat": 40.6155926,
      "lng": 72.1314722
    },
    "_id": "69c76e3fb777c6b7a09c3d32",
    "name": "Bozorboshi",
    "address": "Bozorboshi, Andijon, Oʻzbekiston",
    "type": "point",
    "radius": 40,
    "points": [],
    "createdAt": "2026-03-28T05:59:27.765Z",
    "__v": 0
  },
  {
    "location": {
      "lat": 40.7061922,
      "lng": 72.1754337
    },
    "_id": "69c76e3fb777c6b7a09c3d33",
    "name": "Katta",
    "address": "Katta, Andijon, Oʻzbekiston",
    "type": "point",
    "radius": 50,
    "points": [],
    "createdAt": "2026-03-28T05:59:27.765Z",
    "__v": 0
  },
  {
    "location": {
      "lat": 40.708445,
      "lng": 72.2008825
    },
    "_id": "69c76e3fb777c6b7a09c3d34",
    "name": "Katta Tojik",
    "address": "Katta Tojik, Andijon, Oʻzbekiston",
    "type": "point",
    "radius": 50,
    "points": [],
    "createdAt": "2026-03-28T05:59:27.765Z",
    "__v": 0
  },
  {
    "location": {
      "lat": 40.6900927,
      "lng": 72.135737
    },